$GPGGA,082318.000,3119.1468,N,12123.7502,E,1,08,1.65,-11.1,M,8.0,M,,0000*40

$GPGSA,A,3,03,11,18,30,07,22,193,01,,,,,1.88,1.65,0.90*3C

$GPGSV,4,1,14,28,82,309,20,03,51,105,42,193,45,137,42,42,45,139,32*40

$GPGSV,4,2,14,01,43,037,30,22,40,069,35,17,39,311,26,11,34,053,35*7A

$GPGSV,4,3,14,30,23,215,26,06,23,240,,19,21,295,,18,19,047,41*78

$GPGSV,4,4,14,08,11,091,29,07,08,190,34*77

//用这个信息
$GPRMC,082318.000,A,3119.1468,N,12123.7502,E,0.00,0.00,250518,,,A*67

$GPVTG,0.00,T,,M,0.00,N,0.0,K,A*0D

//second circle
$GPGGA,082319.000,3119.1468,N,12123.7503,E,1,08,1.65,-11.1,M,8.0,M,,0000*40

$GPGSA,A,3,03,11,18,30,07,22,193,01,,,,,1.88,1.65,0.90*3C

$GPGSV,4,1,14,28,82,309,21,03,51,105,42,193,45,137,41,42,45,139,32*42

$GPGSV,4,2,14,01,43,037,30,22,40,069,36,17,39,311,25,11,34,053,35*7A

$GPGSV,4,3,14,30,23,215,26,06,23,240,,19,21,295,,18,19,047,40*79

$GPGSV,4,4,14,08,11,091,29,07,08,190,33*70

$GPRMC,082319.000,A,3119.1468,N,12123.7503,E,0.00,0.00,250518,,,A*67

$GPVTG,0.00,T,,M,0.00,N,0.0,K,A*0D

$GPGGA,082320.000,3119.1468,N,12123.7503,E,1,08,1.65,-11.1,M,8.0,M,,0000*4A

$GPGSA,A,3,03,11,18,30,07,22,193,01,,,,,1.88,1.65,0.90*3C

$GPGSV,4,1,14,28,82,309,22,03,51,105,42,193,45,137,41,42,45,139,32*41

$GPGSV,4,2,14,01,43,037,30,22,40,069,36,17,39,311,24,11,34,053,35*7B

$GPGSV,4,3,14,30,23,215,26,06,23,240,,19,21,295,,18,19,047,40*79

$GPGSV,4,4,14,08,11,091,28,07,08,190,33*71

$GPRMC,082320.000,A,3119.1468,N,12123.7503,E,0.00,0.00,250518,,,A*6D

$GPVTG,0.00,T,,M,0.00,N,0.0,K,A*0D

$GPGGA,082321.000,3119.1468,N,12123.7503,E,1,08,1.65,-11.1,M,8.0,M,,0000*4B

$GPGSA,A,3,03,11,18,30,07,22,193,01,,,,,1.88,1.65,0.90*3C

$GPGSV,4,1,14,28,82,309,22,03,51,105,42,193,45,137,42,42,45,139,32*42

$GPGSV,4,2,14,01,43,037,31,22,40,069,35,17,39,311,22,11,34,053,34*7E

$GPGSV,4,3,14,30,23,215,25,06,23,240,,19,21,295,,18,19,047,40*7A

$GPGSV,4,4,14,08,11,091,28,07,08,190,33*71

$GPRMC,082321.000,A,3119.1468,N,12123.7503,E,0.00,0.00,250518,,,A*6C

$GPVTG,0.00,T,,M,0.00,N,0.0,K,A*0D

$GPGGA,082322.000,3119.1468,N,12123.7503,E,1,08,1.65,-11.1,M,8.0,M,,0000*48

$GPGSA,A,3,03,11,18,30,07,22,193,01,,,,,1.88,1.65,0.90*3C

$GPGSV,4,1,14,28,82,309,22,03,51,105,42,193,45,137,42,42,45,139,32*42

$GPGSV,4,2,14,01,43,037,30,22,40,069,36,17,39,311,21,11,34,053,34*7F

$GPGSV,4,3,14,30,23,215,25,06,23,240,,19,21,295,,18,19,047,40*7A

$GPGSV,4,4,14,08,11,091,28,07,08,190,33*71

$GPRMC,082322.000,A,3119.1468,N,12123.7503,E,0.00,0.00,250518,,,A*6F

$GPVTG,0.00,T,,M,0.00,N,0.0,K,A*0D

$GPGGA,082323.000,3119.1468,N,12123.7503,E,1,08,1.65,-11.1,M,8.0,M,,0000*49

$GPGSA,A,3,03,11,18,30,07,22,193,01,,,,,1.88,1.65,0.90*3C

$GPGSV,4,1,14,28,82,309,23,03,51,105,42,193,45,137,42,42,45,139,32*43

$GPGSV,4,2,14,01,43,037,30,22,40,069,36,17,39,311,22,11,34,053,33*7B

$GPGSV,4,3,14,30,23,215,25,06,23,240,,19,21,295,,18,19,047,40*7A

$GPGSV,4,4,14,08,11,091,28,07,08,190,32*70

$GPRMC,082323.000,A,3119.1468,N,12123.7503,E,0.00,0.00,250518,,,A*6E

$GPVTG,0.00,T,,M,0.00,N,0.0,K,A*0D

$GPGGA,082324.000,3119.1467,N,12123.7504,E,1,08,1.65,-11.1,M,8.0,M,,0000*46

$GPGSA,A,3,03,11,18,30,07,22,193,01,,,,,1.88,1.65,0.90*3C

$GPGSV,4,1,14,28,82,308,23,03,51,105,42,193,45,137,42,42,45,139,32*42

$GPGSV,4,2,14,01,43,037,30,22,40,069,36,17,39,311,22,11,34,053,33*7B

$GPGSV,4,3,14,30,23,215,25,06,23,240,,19,21,295,,18,19,047,40*7A

$GPGSV,4,4,14,08,11,091,27,07,08,190,32*7F

$GPRMC,082324.000,A,3119.1467,N,12123.7504,E,0.00,0.00,250518,,,A*61

$GPVTG,0.00,T,,M,0.00,N,0.0,K,A*0D

$GPGGA,082325.000,3119.1466,N,12123.7505,E,1,09,1.35,-11.0,M,8.0,M,,0000*42

$GPGSA,A,3,03,11,18,30,07,22,08,193,01,,,,1.59,1.35,0.84*38

$GPGSV,4,1,14,28,82,308,24,03,51,105,42,193,45,137,42,42,45,139,32*45

$GPGSV,4,2,14,01,43,037,30,22,40,069,36,17,39,311,22,11,34,053,33*7B

$GPGSV,4,3,14,30,23,215,25,06,23,240,,19,21,295,,18,19,047,40*7A

$GPGSV,4,4,14,08,11,091,27,07,08,190,32*7F

$GPRMC,082325.000,A,3119.1466,N,12123.7505,E,0.00,0.00,250518,,,A*60

$GPVTG,0.00,T,,M,0.00,N,0.0,K,A*0D

$GPGGA,082326.000,3119.1465,N,12123.7507,E,1,09,1.35,-11.0,M,8.0,M,,0000*40

$GPGSA,A,3,03,11,18,30,07,22,08,193,01,,,,1.59,1.35,0.84*38

$GPGSV,4,1,14,28,82,308,25,03,51,105,42,193,45,137,42,42,45,139,31*47

$GPGSV,4,2,14,01,43,037,30,22,40,069,36,17,39,311,22,11,34,053,33*7B

$GPGSV,4,3,14,30,23,215,25,06,23,240,,19,21,295,,18,19,047,40*7A

$GPGSV,4,4,14,08,11,091,27,07,08,190,32*7F

$GPRMC,082326.000,A,3119.1465,N,12123.7507,E,0.00,0.00,250518,,,A*62

$GPVTG,0.00,T,,M,0.00,N,0.0,K,A*0D

$GPGGA,082327.000,3119.1464,N,12123.7508,E,1,09,1.35,-11.0,M,8.0,M,,0000*4F

$GPGSA,A,3,03,11,18,30,07,22,08,193,01,,,,1.59,1.35,0.84*38

$GPGSV,4,1,14,28,82,308,25,03,51,105,42,193,45,137,42,42,45,139,31*47

$GPGSV,4,2,14,01,43,037,30,22,40,069,36,17,39,311,22,11,34,053,33*7B

$GPGSV,4,3,14,30,23,215,25,06,23,240,,19,21,295,,18,19,047,40*7A

$GPGSV,4,4,14,08,11,091,27,07,08,190,32*7F

$GPRMC,082327.000,A,3119.1464,N,12123.7508,E,0.00,0.00,250518,,,A*6D

$GPVTG,0.00,T,,M,0.00,N,0.0,K,A*0D

$GPGGA,082328.000,3119.1463,N,12123.7509,E,1,09,1.35,-11.0,M,8.0,M,,0000*46

$GPGSA,A,3,03,11,18,30,07,22,08,193,01,,,,1.59,1.35,0.84*38

$GPGSV,4,1,14,28,82,308,26,03,51,105,42,193,45,137,42,42,45,139,31*44

$GPGSV,4,2,14,01,43,037,30,22,40,069,36,17,39,311,22,11,34,053,33*7B

$GPGSV,4,3,14,30,23,215,25,06,23,240,,19,21,295,,18,19,047,40*7A

$GPGSV,4,4,14,08,11,091,27,07,08,190,32*7F

$GPRMC,082328.000,A,3119.1463,N,12123.7509,E,0.00,0.00,250518,,,A*64

$GPVTG,0.00,T,,M,0.00,N,0.0,K,A*0D

$GPGGA,082329.000,3119.1462,N,12123.7510,E,1,09,1.35,-10.9,M,8.0,M,,0000*46

$GPGSA,A,3,03,11,18,30,07,22,08,193,01,,,,1.59,1.35,0.84*38

$GPGSV,4,1,14,28,82,308,27,03,51,105,42,193,45,137,42,42,45,139,31*45

$GPGSV,4,2,14,01,43,037,30,22,40,069,37,17,39,311,22,11,34,053,33*7A

$GPGSV,4,3,14,30,23,215,25,06,23,240,,19,21,295,,18,19,047,40*7A

$GPGSV,4,4,14,08,11,091,27,07,08,190,32*7F

$GPRMC,082329.000,A,3119.1462,N,12123.7510,E,0.00,0.00,250518,,,A*6C

$GPVTG,0.00,T,,M,0.00,N,0.0,K,A*0D

$GPGGA,082330.000,3119.1461,N,12123.7511,E,1,09,1.35,-10.9,M,8.0,M,,0000*4C

$GPGSA,A,3,03,11,18,30,07,22,08,193,01,,,,1.59,1.35,0.84*38

$GPGSV,4,1,14,28,82,308,27,03,51,105,42,193,45,137,42,42,45,139,31*45

$GPGSV,4,2,14,01,43,037,30,22,40,069,37,17,39,311,22,11,34,053,33*7A

$GPGSV,4,3,14,30,23,215,24,06,23,240,,19,21,295,,18,19,047,40*7B

$GPGSV,4,4,14,08,11,091,26,07,08,190,32*7E

$GPRMC,082330.000,A,3119.1461,N,12123.7511,E,0.00,0.00,250518,,,A*66

$GPVTG,0.00,T,,M,0.00,N,0.0,K,A*0D

$GPGGA,082331.000,3119.1460,N,12123.7512,E,1,10,1.20,-10.8,M,8.0,M,,0000*42

$GPGSA,A,3,03,11,18,30,07,22,08,193,28,01,,,1.44,1.20,0.80*3E

$GPGSV,4,1,14,28,82,308,28,03,51,105,42,193,45,137,42,42,45,139,31*4A

$GPGSV,4,2,14,01,43,037,31,22,40,069,37,17,39,311,22,11,34,053,33*7B

$GPGSV,4,3,14,30,23,215,24,06,23,240,,19,21,295,,18,19,047,40*7B

$GPGSV,4,4,14,08,11,091,27,07,08,190,32*7F

$GPRMC,082331.000,A,3119.1460,N,12123.7512,E,0.00,0.00,250518,,,A*65

$GPVTG,0.00,T,,M,0.00,N,0.0,K,A*0D

$GPGGA,082332.000,3119.1459,N,12123.7512,E,1,10,1.20,-10.8,M,8.0,M,,0000*4B

$GPGSA,A,3,03,11,18,30,07,22,08,193,28,01,,,1.44,1.20,0.80*3E

$GPGSV,4,1,14,28,82,308,28,03,51,105,42,193,45,137,42,42,45,139,31*4A

$GPGSV,4,2,14,01,42,038,31,22,40,069,37,17,39,311,22,11,34,053,33*75

$GPGSV,4,3,14,30,23,215,24,06,23,240,,19,21,295,,18,19,047,40*7B

$GPGSV,4,4,14,08,11,091,27,07,08,190,32*7F

$GPRMC,082332.000,A,3119.1459,N,12123.7512,E,0.00,0.00,250518,,,A*6C

$GPVTG,0.00,T,,M,0.00,N,0.0,K,A*0D

$GPGGA,082333.000,3119.1459,N,12123.7512,E,1,10,1.20,-10.6,M,8.0,M,,0000*44

$GPGSA,A,3,03,11,18,30,07,22,08,193,28,01,,,1.44,1.20,0.80*3E

$GPGSV,4,1,14,28,82,308,28,03,51,105,42,193,45,137,42,42,45,139,31*4A

$GPGSV,4,2,14,01,42,038,31,22,40,069,37,17,39,311,22,11,34,053,33*75

$GPGSV,4,3,14,30,23,215,24,06,23,240,,19,21,295,,18,19,047,40*7B

$GPGSV,4,4,14,08,11,091,28,07,08,190,32*70

$GPRMC,082333.000,A,3119.1459,N,12123.7512,E,0.00,0.00,250518,,,A*6D

$GPVTG,0.00,T,,M,0.00,N,0.0,K,A*0D

$GPGGA,082334.000,3119.1459,N,12123.7512,E,1,10,1.20,-10.6,M,8.0,M,,0000*43

$GPGSA,A,3,03,11,18,30,07,22,08,193,28,01,,,1.44,1.20,0.80*3E

$GPGSV,4,1,14,28,82,308,28,03,51,105,42,193,45,137,42,42,45,139,31*4A

$GPGSV,4,2,14,01,42,038,32,22,40,069,37,17,39,311,22,11,34,053,34*71

$GPGSV,4,3,14,30,23,215,23,06,23,240,,19,21,295,,18,19,047,40*7C

$GPGSV,4,4,14,08,11,091,28,07,08,190,32*70

$GPRMC,082334.000,A,3119.1459,N,12123.7512,E,0.00,0.00,250518,,,A*6A

$GPVTG,0.00,T,,M,0.00,N,0.0,K,A*0D

$GPGGA,082335.000,3119.1459,N,12123.7511,E,1,10,1.20,-10.6,M,8.0,M,,0000*41

$GPGSA,A,3,03,11,18,30,07,22,08,193,28,01,,,1.44,1.20,0.80*3E

$GPGSV,4,1,14,28,82,308,28,03,51,105,42,193,45,137,42,42,45,139,32*49

$GPGSV,4,2,14,01,42,038,33,22,40,069,37,17,39,311,22,11,34,053,34*70

$GPGSV,4,3,14,30,23,215,23,06,23,240,,19,21,295,,18,19,047,40*7C

$GPGSV,4,4,14,08,11,091,28,07,08,190,32*70

$GPRMC,082335.000,A,3119.1459,N,12123.7511,E,0.00,0.00,250518,,,A*68

$GPVTG,0.00,T,,M,0.00,N,0.0,K,A*0D

$GPGGA,082336.000,3119.1459,N,12123.7511,E,1,10,1.20,-10.5,M,8.0,M,,0000*41

$GPGSA,A,3,03,11,18,30,07,22,08,193,28,01,,,1.44,1.20,0.80*3E

$GPGSV,4,1,14,28,82,308,28,03,51,105,42,193,45,137,42,42,45,139,32*49

$GPGSV,4,2,14,01,42,038,33,22,40,069,37,17,39,311,22,11,34,053,34*70

$GPGSV,4,3,14,30,23,215,23,06,23,240,,19,21,295,,18,19,047,40*7C

$GPGSV,4,4,14,08,11,091,28,07,08,190,32*70

$GPRMC,082336.000,A,3119.1459,N,12123.7511,E,0.00,0.00,250518,,,A*6B

$GPVTG,0.00,T,,M,0.00,N,0.0,K,A*0D

$GPGGA,082337.000,3119.1459,N,12123.7512,E,1,10,1.20,-10.5,M,8.0,M,,0000*43

$GPGSA,A,3,03,11,18,30,07,22,08,193,28,01,,,1.44,1.20,0.80*3E

$GPGSV,4,1,14,28,82,308,28,03,51,105,42,193,45,137,42,42,45,139,32*49

$GPGSV,4,2,14,01,42,038,33,22,40,069,37,17,39,311,22,11,34,053,34*70

$GPGSV,4,3,14,30,23,215,23,06,23,241,,19,21,295,,18,19,047,40*7D

$GPGSV,4,4,14,08,11,091,28,07,08,190,32*70

$GPRMC,082337.000,A,3119.1459,N,12123.7512,E,0.00,0.00,250518,,,A*69

$GPVTG,0.00,T,,M,0.00,N,0.0,K,A*0D

$GPGGA,082338.000,3119.1459,N,12123.7512,E,1,10,1.20,-10.5,M,8.0,M,,0000*4C

$GPGSA,A,3,03,11,18,30,07,22,08,193,28,01,,,1.44,1.20,0.80*3E

$GPGSV,4,1,14,28,82,308,28,03,51,105,42,193,45,137,42,42,45,139,32*49

$GPGSV,4,2,14,01,42,038,34,22,40,069,38,17,39,311,22,11,34,053,34*78

$GPGSV,4,3,14,30,23,215,22,06,23,241,,19,21,295,,18,19,047,40*7C

$GPGSV,4,4,14,08,11,091,27,07,08,190,32*7F

$GPRMC,082338.000,A,3119.1459,N,12123.7512,E,0.00,0.00,250518,,,A*66

$GPVTG,0.00,T,,M,0.00,N,0.0,K,A*0D

$GPGGA,082339.000,3119.1459,N,12123.7513,E,1,10,1.20,-10.5,M,8.0,M,,0000*4C

$GPGSA,A,3,03,11,18,30,07,22,08,193,28,01,,,1.44,1.20,0.80*3E

$GPGSV,4,1,14,28,82,308,28,03,51,105,42,193,45,137,42,42,45,139,32*49

$GPGSV,4,2,14,01,42,038,34,22,40,069,39,17,39,311,22,11,34,053,34*79

$GPGSV,4,3,14,30,23,215,22,06,23,241,,19,21,295,,18,19,047,40*7C

$GPGSV,4,4,14,08,11,092,27,07,08,190,32*7C

$GPRMC,082339.000,A,3119.1459,N,12123.7513,E,0.00,0.00,250518,,,A*66

$GPVTG,0.00,T,,M,0.00,N,0.0,K,A*0D

$GPGGA,082340.000,3119.1459,N,12123.7512,E,1,10,1.20,-10.5,M,8.0,M,,0000*43

$GPGSA,A,3,03,11,18,30,07,22,08,193,28,01,,,1.44,1.20,0.80*3E

$GPGSV,4,1,14,28,82,308,28,03,51,105,42,193,45,137,42,42,45,139,32*49

$GPGSV,4,2,14,01,42,038,34,22,40,069,39,17,39,311,22,11,34,053,34*79

$GPGSV,4,3,14,30,23,215,22,06,23,241,,19,21,295,,18,19,047,40*7C

$GPGSV,4,4,14,08,11,092,28,07,08,190,32*73

$GPRMC,082340.000,A,3119.1459,N,12123.7512,E,0.00,0.00,250518,,,A*69

$GPVTG,0.00,T,,M,0.00,N,0.0,K,A*0D

$GPGGA,082341.000,3119.1459,N,12123.7512,E,1,10,1.20,-10.5,M,8.0,M,,0000*42

$GPGSA,A,3,03,11,18,30,07,22,08,193,28,01,,,1.44,1.20,0.80*3E

$GPGSV,4,1,14,28,82,308,28,03,51,105,42,193,45,137,42,42,45,139,31*4A

$GPGSV,4,2,14,01,42,038,33,22,40,069,39,17,39,311,22,11,34,053,34*7E

$GPGSV,4,3,14,30,23,215,22,06,23,241,,19,21,295,,18,19,047,40*7C

$GPGSV,4,4,14,08,11,092,27,07,08,190,32*7C

$GPRMC,082341.000,A,3119.1459,N,12123.7512,E,0.00,0.00,250518,,,A*68

$GPVTG,0.00,T,,M,0.00,N,0.0,K,A*0D

$GPGGA,082342.000,3119.1459,N,12123.7512,E,1,10,1.25,-10.5,M,8.0,M,,0000*44

$GPGSA,A,3,03,11,18,30,07,22,08,193,28,01,,,1.81,1.25,1.32*3A

$GPGSV,4,1,14,28,82,308,28,03,51,105,42,193,45,137,42,42,45,139,31*4A

$GPGSV,4,2,14,01,42,038,32,22,40,069,39,17,39,311,22,11,34,053,34*7F

$GPGSV,4,3,14,30,23,215,22,06,23,241,,19,21,295,,18,19,047,40*7C

$GPGSV,4,4,14,08,11,092,26,07,08,190,33*7C

$GPRMC,082342.000,A,3119.1459,N,12123.7512,E,0.00,0.00,250518,,,A*6B

$GPVTG,0.00,T,,M,0.00,N,0.0,K,A*0D

$GPGGA,082343.000,3119.1459,N,12123.7512,E,1,10,1.20,-10.5,M,8.0,M,,0000*40

$GPGSA,A,3,03,11,18,30,07,22,08,193,28,01,,,1.44,1.20,0.80*3E

$GPGSV,4,1,14,28,82,308,28,03,51,105,42,193,45,137,42,42,45,139,31*4A

$GPGSV,4,2,14,01,42,038,32,22,40,069,39,17,39,311,23,11,34,053,34*7E

$GPGSV,4,3,14,30,23,215,22,06,23,241,,19,21,295,,18,19,047,40*7C

$GPGSV,4,4,14,08,11,092,25,07,08,190,33*7F

$GPRMC,082343.000,A,3119.1459,N,12123.7512,E,0.00,0.00,250518,,,A*6A

$GPVTG,0.00,T,,M,0.00,N,0.0,K,A*0D

$GPGGA,082344.000,3119.1459,N,12123.7512,E,1,10,1.25,-10.5,M,8.0,M,,0000*42

$GPGSA,A,3,03,11,18,30,07,22,08,193,28,01,,,1.81,1.25,1.32*3A

$GPGSV,4,1,14,28,82,308,27,03,51,105,42,193,45,137,42,42,45,139,31*45

$GPGSV,4,2,14,01,42,038,32,22,40,069,39,17,39,311,23,11,34,053,34*7E

$GPGSV,4,3,14,30,23,215,23,06,23,241,,19,21,295,,18,19,047,40*7D

$GPGSV,4,4,14,08,11,092,24,07,08,190,32*7F

$GPRMC,082344.000,A,3119.1459,N,12123.7512,E,0.00,0.00,250518,,,A*6D

$GPVTG,0.00,T,,M,0.00,N,0.0,K,A*0D

$GPGGA,082345.000,3119.1459,N,12123.7512,E,1,09,1.38,-10.5,M,8.0,M,,0000*47

$GPGSA,A,3,03,11,18,30,07,22,193,28,01,,,,2.00,1.38,1.44*35

$GPGSV,4,1,14,28,82,308,27,03,51,105,42,193,45,137,42,42,45,139,31*45

$GPGSV,4,2,14,01,42,038,32,22,40,069,39,17,39,311,23,11,34,053,34*7E

$GPGSV,4,3,14,30,23,215,21,06,23,241,,19,21,295,,18,19,047,40*7F

$GPGSV,4,4,14,08,11,092,23,07,08,190,32*78

$GPRMC,082345.000,A,3119.1459,N,12123.7512,E,0.00,0.00,250518,,,A*6C

$GPVTG,0.00,T,,M,0.00,N,0.0,K,A*0D

$GPGGA,082346.000,3119.1459,N,12123.7512,E,1,10,1.25,-10.5,M,8.0,M,,0000*40

$GPGSA,A,3,03,11,18,30,07,22,08,193,28,01,,,1.81,1.25,1.32*3A

$GPGSV,4,1,14,28,82,308,27,03,51,105,42,193,45,137,42,42,45,139,31*45

$GPGSV,4,2,14,01,42,038,32,22,40,069,39,17,39,311,23,11,34,053,34*7E

$GPGSV,4,3,14,30,23,215,21,06,23,241,,19,21,295,,18,19,047,40*7F

$GPGSV,4,4,14,08,11,092,23,07,08,190,33*79

$GPRMC,082346.000,A,3119.1459,N,12123.7512,E,0.00,0.00,250518,,,A*6F

$GPVTG,0.00,T,,M,0.00,N,0.0,K,A*0D

$GPGGA,082347.000,3119.1459,N,12123.7512,E,1,09,1.38,-10.5,M,8.0,M,,0000*45

$GPGSA,A,3,03,11,18,30,07,22,193,28,01,,,,2.00,1.38,1.44*35

$GPGSV,4,1,14,28,82,308,26,03,51,105,42,193,45,137,42,42,45,139,31*44

$GPGSV,4,2,14,01,42,038,32,22,40,069,39,17,39,311,24,11,34,053,34*79

$GPGSV,4,3,14,30,23,215,21,06,23,241,,19,21,295,,18,19,047,40*7F

$GPGSV,4,4,14,08,11,092,22,07,08,190,33*78

$GPRMC,082347.000,A,3119.1459,N,12123.7512,E,0.00,0.00,250518,,,A*6E

$GPVTG,0.00,T,,M,0.00,N,0.0,K,A*0D

$GPGGA,082348.000,3119.1459,N,12123.7512,E,1,09,1.39,-10.5,M,8.0,M,,0000*4B

$GPGSA,A,3,03,11,18,30,07,22,193,28,01,,,,2.00,1.39,1.44*34

$GPGSV,4,1,14,28,82,308,25,03,51,105,42,193,45,137,42,42,45,139,31*47

$GPGSV,4,2,14,01,42,038,32,22,40,069,39,17,39,312,24,11,34,053,34*7A

$GPGSV,4,3,14,30,23,215,21,06,23,241,,19,21,295,,18,19,047,40*7F

$GPGSV,4,4,14,08,11,092,20,07,08,190,33*7A

$GPRMC,082348.000,A,3119.1459,N,12123.7512,E,0.00,0.00,250518,,,A*61

$GPVTG,0.00,T,,M,0.00,N,0.0,K,A*0D

$GPGGA,082349.000,3119.1459,N,12123.7512,E,1,09,1.39,-10.5,M,8.0,M,,0000*4A

$GPGSA,A,3,03,11,18,30,07,22,193,28,01,,,,2.00,1.39,1.44*34

$GPGSV,4,1,14,28,82,308,25,03,51,105,42,193,45,137,42,42,45,139,31*47

$GPGSV,4,2,14,01,42,038,32,22,40,069,39,17,39,312,24,11,34,053,34*7A

$GPGSV,4,3,14,30,23,215,21,06,23,241,,19,21,295,,18,19,048,40*70

$GPGSV,4,4,14,08,11,092,20,07,08,190,33*7A

$GPRMC,082349.000,A,3119.1459,N,12123.7512,E,0.00,0.00,250518,,,A*60

$GPVTG,0.00,T,,M,0.00,N,0.0,K,A*0D

$GPGGA,082350.000,3119.1459,N,12123.7512,E,1,09,1.39,-10.5,M,8.0,M,,0000*42

$GPGSA,A,3,03,11,18,30,07,22,193,28,01,,,,2.00,1.39,1.44*34

$GPGSV,4,1,14,28,82,308,24,03,51,105,42,193,45,137,42,42,45,139,31*46

$GPGSV,4,2,14,01,42,038,31,22,40,069,39,17,39,312,24,11,34,053,34*79

$GPGSV,4,3,14,30,23,215,21,06,23,241,,19,21,295,,18,19,048,40*70

$GPGSV,4,4,14,08,11,092,19,07,08,190,32*71

$GPRMC,082350.000,A,3119.1459,N,12123.7512,E,0.00,0.00,250518,,,A*68

$GPVTG,0.00,T,,M,0.00,N,0.0,K,A*0D

$GPGGA,082351.000,3119.1459,N,12123.7512,E,1,09,1.39,-10.5,M,8.0,M,,0000*43

$GPGSA,A,3,03,11,18,30,07,22,193,28,01,,,,2.00,1.39,1.44*34

$GPGSV,4,1,14,28,82,308,23,03,51,105,42,193,45,137,42,42,45,139,30*40

$GPGSV,4,2,14,01,42,038,30,22,40,069,39,17,39,312,24,11,34,053,34*78

$GPGSV,4,3,14,30,23,215,21,06,23,241,,19,21,295,,18,19,048,40*70

$GPGSV,4,4,14,08,11,092,19,07,08,190,32*71

$GPRMC,082351.000,A,3119.1459,N,12123.7512,E,0.00,0.00,250518,,,A*69

$GPVTG,0.00,T,,M,0.00,N,0.0,K,A*0D

$GPGGA,082352.000,3119.1459,N,12123.7512,E,1,09,1.39,-10.5,M,8.0,M,,0000*40

$GPGSA,A,3,03,11,18,30,07,22,193,28,01,,,,2.00,1.39,1.44*34

$GPGSV,4,1,14,28,82,308,22,03,51,105,42,193,45,137,42,42,45,139,30*41

$GPGSV,4,2,14,01,42,038,29,22,40,069,39,17,39,312,24,11,34,053,34*70

$GPGSV,4,3,14,30,23,215,20,06,23,241,,19,21,295,,18,19,048,40*71

$GPGSV,4,4,14,08,11,092,19,07,08,190,32*71

$GPRMC,082352.000,A,3119.1459,N,12123.7512,E,0.00,0.00,250518,,,A*6A

$GPVTG,0.00,T,,M,0.00,N,0.0,K,A*0D

$GPGGA,082353.000,3119.1459,N,12123.7512,E,1,09,1.39,-10.5,M,8.0,M,,0000*41

$GPGSA,A,3,03,11,18,30,07,22,193,28,01,,,,2.00,1.39,1.44*34

$GPGSV,4,1,14,28,82,308,22,03,51,105,42,193,45,137,42,42,45,139,31*40

$GPGSV,4,2,14,01,42,038,29,22,40,069,39,17,39,312,25,11,34,053,34*71

$GPGSV,4,3,14,30,23,215,19,06,23,241,,19,21,295,,18,19,048,40*7B

$GPGSV,4,4,14,08,11,092,19,07,08,190,32*71

$GPRMC,082353.000,A,3119.1459,N,12123.7512,E,0.00,0.00,250518,,,A*6B

$GPVTG,0.00,T,,M,0.00,N,0.0,K,A*0D

$GPGGA,082354.000,3119.1458,N,12123.7512,E,1,09,1.36,-10.5,M,8.0,M,,0000*48

$GPGSA,A,3,03,11,18,30,07,22,08,193,01,,,,2.07,1.36,1.56*3D

$GPGSV,4,1,14,28,82,308,21,03,51,105,42,193,45,137,42,42,45,139,31*43

$GPGSV,4,2,14,01,42,038,29,22,40,069,39,17,39,312,25,11,34,053,34*71

$GPGSV,4,3,14,30,23,215,19,06,23,241,,19,21,295,,18,19,048,40*7B

$GPGSV,4,4,14,08,11,092,20,07,08,190,32*7B

$GPRMC,082354.000,A,3119.1458,N,12123.7512,E,0.00,0.00,250518,,,A*6D

$GPVTG,0.00,T,,M,0.00,N,0.0,K,A*0D

$GPGGA,082355.000,3119.1458,N,12123.7513,E,1,10,1.25,-10.5,M,8.0,M,,0000*42

$GPGSA,A,3,03,11,18,30,07,22,08,193,28,01,,,1.81,1.25,1.32*3A

$GPGSV,4,1,14,28,82,308,21,03,51,105,42,193,45,137,42,42,45,139,31*43

$GPGSV,4,2,14,01,42,038,29,22,40,069,39,17,39,312,25,11,34,053,34*71

$GPGSV,4,3,14,30,23,215,19,06,23,241,,19,21,295,,18,19,048,40*7B

$GPGSV,4,4,14,08,11,092,21,07,08,190,32*7A

$GPRMC,082355.000,A,3119.1458,N,12123.7513,E,0.00,0.00,250518,,,A*6D

$GPVTG,0.00,T,,M,0.00,N,0.0,K,A*0D

$GPGGA,082356.000,3119.1457,N,12123.7513,E,1,09,1.36,-10.4,M,8.0,M,,0000*45

$GPGSA,A,3,03,11,18,30,07,22,08,193,01,,,,2.07,1.36,1.56*3D

$GPGSV,4,1,14,28,82,308,20,03,51,105,42,193,45,137,42,42,45,139,31*42

$GPGSV,4,2,14,01,42,038,29,22,40,069,39,17,39,312,25,11,34,053,34*71

$GPGSV,4,3,14,30,23,215,19,06,23,241,,19,21,295,,18,19,048,40*7B

$GPGSV,4,4,14,08,11,092,22,07,08,190,32*79

$GPRMC,082356.000,A,3119.1457,N,12123.7513,E,0.00,0.00,250518,,,A*61

$GPVTG,0.00,T,,M,0.00,N,0.0,K,A*0D

$GPGGA,082357.000,3119.1456,N,12123.7513,E,1,09,1.36,-10.3,M,8.0,M,,0000*42

$GPGSA,A,3,03,11,18,30,07,22,08,193,01,,,,2.07,1.36,1.56*3D

$GPGSV,4,1,14,28,82,308,19,03,51,105,42,193,45,137,42,42,45,139,31*48

$GPGSV,4,2,14,01,42,038,29,22,40,069,39,17,39,312,25,11,34,053,33*76

$GPGSV,4,3,14,30,23,215,19,06,23,241,,19,21,295,,18,19,048,40*7B

$GPGSV,4,4,14,08,11,092,23,07,08,190,32*78

$GPRMC,082357.000,A,3119.1456,N,12123.7513,E,0.00,0.00,250518,,,A*61

$GPVTG,0.00,T,,M,0.00,N,0.0,K,A*0D

$GPGGA,082358.000,3119.1456,N,12123.7513,E,1,09,1.36,-10.2,M,8.0,M,,0000*4C

$GPGSA,A,3,03,11,18,30,07,22,08,193,01,,,,2.07,1.36,1.56*3D

$GPGSV,4,1,14,28,82,308,18,03,51,105,42,193,45,137,42,42,45,139,31*49

$GPGSV,4,2,14,01,42,038,28,22,40,069,39,17,39,312,25,11,34,053,33*77

$GPGSV,4,3,14,30,23,215,19,06,23,241,,19,21,295,,18,19,048,40*7B

$GPGSV,4,4,14,08,11,092,23,07,08,190,32*78

$GPRMC,082358.000,A,3119.1456,N,12123.7513,E,0.00,0.00,250518,,,A*6E

$GPVTG,0.00,T,,M,0.00,N,0.0,K,A*0D

$GPGGA,082359.000,3119.1456,N,12123.7512,E,1,09,1.36,-10.2,M,8.0,M,,0000*4C

$GPGSA,A,3,03,11,18,30,07,22,08,193,01,,,,2.07,1.36,1.56*3D

$GPGSV,4,1,14,28,82,307,18,03,51,105,42,193,45,137,42,42,45,139,31*46

$GPGSV,4,2,14,01,42,038,28,22,40,069,39,17,39,312,25,11,34,053,33*77

$GPGSV,4,3,14,30,23,215,19,06,23,241,,19,21,295,,18,19,048,40*7B

$GPGSV,4,4,14,08,11,092,23,07,08,190,32*78

$GPRMC,082359.000,A,3119.1456,N,12123.7512,E,0.00,0.00,250518,,,A*6E

$GPVTG,0.00,T,,M,0.00,N,0.0,K,A*0D

$GPGGA,082400.000,3119.1455,N,12123.7513,E,1,09,1.36,-10.1,M,8.0,M,,0000*46

$GPGSA,A,3,03,11,18,30,07,22,08,193,01,,,,2.07,1.36,1.56*3D

$GPGSV,4,1,14,28,82,307,17,03,51,105,42,193,45,137,42,42,45,139,31*49

$GPGSV,4,2,14,01,42,038,27,22,40,069,39,17,39,312,25,11,34,053,33*78

$GPGSV,4,3,14,30,23,215,19,06,23,241,,19,21,295,,18,19,048,40*7B

$GPGSV,4,4,14,08,11,092,23,07,08,190,32*78

$GPRMC,082400.000,A,3119.1455,N,12123.7513,E,0.00,0.00,250518,,,A*67

$GPVTG,0.00,T,,M,0.00,N,0.0,K,A*0D

$GPGGA,082401.000,3119.1455,N,12123.7513,E,1,09,1.36,-10.0,M,8.0,M,,0000*46

$GPGSA,A,3,03,11,18,30,07,22,08,193,01,,,,2.07,1.36,1.56*3D

$GPGSV,4,1,14,28,82,307,16,03,51,105,42,193,45,137,42,42,45,139,30*49

$GPGSV,4,2,14,01,42,038,26,22,40,069,39,17,39,312,25,11,34,053,33*79

$GPGSV,4,3,14,30,23,214,20,06,23,241,,19,21,295,,18,19,048,40*70

$GPGSV,4,4,14,08,11,092,22,07,08,190,32*79

$GPRMC,082401.000,A,3119.1455,N,12123.7513,E,0.00,0.00,250518,,,A*66

$GPVTG,0.00,T,,M,0.00,N,0.0,K,A*0D

$GPGGA,082402.000,3119.1455,N,12123.7513,E,1,08,1.82,-10.0,M,8.0,M,,0000*4B

$GPGSA,A,3,03,11,18,30,07,22,193,01,,,,,2.78,1.82,2.10*33

$GPGSV,4,1,14,28,82,307,16,03,51,105,42,193,45,137,42,42,45,139,30*49

$GPGSV,4,2,14,01,42,038,26,22,40,069,38,17,39,312,25,11,34,053,33*78

$GPGSV,4,3,14,30,23,214,20,06,23,241,,19,21,295,,18,19,048,40*70

$GPGSV,4,4,14,08,11,092,21,07,08,190,32*7A

$GPRMC,082402.000,A,3119.1455,N,12123.7513,E,0.00,0.00,250518,,,A*65

$GPVTG,0.00,T,,M,0.00,N,0.0,K,A*0D

$GPGGA,082403.000,3119.1455,N,12123.7514,E,1,08,1.82,-9.9,M,8.0,M,,0000*7C

$GPGSA,A,3,03,11,18,30,07,22,193,01,,,,,2.78,1.82,2.10*33

$GPGSV,4,1,14,28,82,307,16,03,51,105,42,193,45,137,42,42,45,139,30*49

$GPGSV,4,2,14,01,42,038,25,22,40,069,38,17,39,312,25,11,34,053,33*7B

$GPGSV,4,3,14,30,23,214,20,06,23,241,,19,21,295,,18,19,048,40*70

$GPGSV,4,4,14,08,11,092,21,07,08,190,32*7A

$GPRMC,082403.000,A,3119.1455,N,12123.7514,E,0.00,0.00,250518,,,A*63

$GPVTG,0.00,T,,M,0.00,N,0.0,K,A*0D

$GPGGA,082404.000,3119.1455,N,12123.7513,E,1,08,1.82,-9.7,M,8.0,M,,0000*72

$GPGSA,A,3,03,11,18,30,07,22,193,01,,,,,2.78,1.82,2.10*33

$GPGSV,4,1,14,28,82,307,15,03,51,105,42,193,45,137,42,42,45,139,30*4A

$GPGSV,4,2,14,01,42,038,25,22,40,069,38,17,39,312,25,11,34,053,33*7B

$GPGSV,4,3,14,30,23,214,20,06,23,241,,19,21,295,,18,19,048,40*70

$GPGSV,4,4,14,08,11,092,20,07,08,190,32*7B

$GPRMC,082404.000,A,3119.1455,N,12123.7513,E,0.00,0.00,250518,,,A*63

$GPVTG,0.00,T,,M,0.00,N,0.0,K,A*0D

$GPGGA,082405.000,3119.1455,N,12123.7513,E,1,08,1.82,-9.7,M,8.0,M,,0000*73

$GPGSA,A,3,03,11,18,30,07,22,193,01,,,,,2.78,1.82,2.10*33

$GPGSV,4,1,14,28,82,307,15,03,51,105,42,193,45,137,42,42,45,139,30*4A

$GPGSV,4,2,14,01,42,038,25,22,40,069,38,17,39,312,26,11,34,053,33*78

$GPGSV,4,3,14,30,23,214,20,06,23,241,,19,21,295,,18,19,048,40*70

$GPGSV,4,4,14,08,11,092,20,07,08,190,32*7B

$GPRMC,082405.000,A,3119.1455,N,12123.7513,E,0.00,0.00,250518,,,A*62

$GPVTG,0.00,T,,M,0.00,N,0.0,K,A*0D

$GPGGA,082406.000,3119.1455,N,12123.7513,E,1,08,1.82,-9.7,M,8.0,M,,0000*70

$GPGSA,A,3,03,11,18,30,07,22,193,01,,,,,2.78,1.82,2.10*33

$GPGSV,4,1,14,28,82,307,15,03,51,105,42,193,45,137,42,42,45,139,30*4A

$GPGSV,4,2,14,01,42,038,25,22,40,069,38,17,39,312,26,11,34,053,32*79

$GPGSV,4,3,14,30,23,214,20,06,23,241,,19,21,295,,18,19,048,40*70

$GPGSV,4,4,14,08,11,092,20,07,08,190,32*7B

$GPRMC,082406.000,A,3119.1455,N,12123.7513,E,0.00,0.00,250518,,,A*61

$GPVTG,0.00,T,,M,0.00,N,0.0,K,A*0D

$GPGGA,082407.000,3119.1455,N,12123.7513,E,1,08,1.82,-9.7,M,8.0,M,,0000*71

$GPGSA,A,3,03,11,18,30,07,22,193,01,,,,,2.78,1.82,2.10*33

$GPGSV,4,1,14,28,82,307,11,03,51,105,42,193,45,137,42,42,45,139,30*4E

$GPGSV,4,2,14,01,42,038,26,22,40,069,38,17,39,312,27,11,34,053,32*7B

$GPGSV,4,3,14,30,23,214,20,06,23,241,,19,21,295,,18,19,048,40*70

$GPGSV,4,4,14,08,11,092,20,07,08,190,32*7B

$GPRMC,082407.000,A,3119.1455,N,12123.7513,E,0.00,0.00,250518,,,A*60

$GPVTG,0.00,T,,M,0.00,N,0.0,K,A*0D

$GPGGA,082408.000,3119.1455,N,12123.7513,E,1,08,1.82,-9.7,M,8.0,M,,0000*7E

$GPGSA,A,3,03,11,18,30,07,22,193,01,,,,,2.78,1.82,2.10*33

$GPGSV,4,1,14,28,82,307,12,03,51,105,42,193,45,137,42,42,45,139,31*4C

$GPGSV,4,2,14,01,42,038,26,22,40,069,38,17,39,312,27,11,34,053,32*7B

$GPGSV,4,3,14,30,23,214,21,06,23,241,,19,21,295,,18,19,048,39*7F

$GPGSV,4,4,14,08,11,092,20,07,08,190,33*7A

$GPRMC,082408.000,A,3119.1455,N,12123.7513,E,0.00,0.00,250518,,,A*6F

$GPVTG,0.00,T,,M,0.00,N,0.0,K,A*0D

$GPGGA,082409.000,3119.1454,N,12123.7514,E,1,09,1.36,-9.7,M,8.0,M,,0000*77

$GPGSA,A,3,03,11,18,30,07,22,08,193,01,,,,2.07,1.36,1.56*3D

$GPGSV,4,1,14,28,82,307,12,03,51,104,42,193,45,137,42,42,45,139,31*4D

$GPGSV,4,2,14,01,42,038,27,22,40,069,37,17,39,312,27,11,34,053,32*75

$GPGSV,4,3,14,30,23,214,21,06,23,241,,19,21,295,,18,19,048,39*7F

$GPGSV,4,4,14,08,11,092,20,07,08,190,33*7A

$GPRMC,082409.000,A,3119.1454,N,12123.7514,E,0.00,0.00,250518,,,A*68

$GPVTG,0.00,T,,M,0.00,N,0.0,K,A*0D

$GPGGA,082410.000,3119.1454,N,12123.7514,E,1,09,1.36,-9.6,M,8.0,M,,0000*7E

$GPGSA,A,3,03,11,18,30,07,22,08,193,01,,,,2.07,1.36,1.56*3D

$GPGSV,4,1,14,28,82,307,14,03,51,104,42,193,45,137,42,42,45,139,31*4B

$GPGSV,4,2,14,01,42,038,28,22,40,069,37,17,39,312,27,11,34,053,32*7A

$GPGSV,4,3,14,30,23,214,21,06,23,241,,19,21,295,,18,19,048,39*7F

$GPGSV,4,4,14,08,11,092,21,07,08,190,33*7B

$GPRMC,082410.000,A,3119.1454,N,12123.7514,E,0.00,0.00,250518,,,A*60

$GPVTG,0.00,T,,M,0.00,N,0.0,K,A*0D

$GPGGA,082411.000,3119.1454,N,12123.7515,E,1,09,1.36,-9.6,M,8.0,M,,0000*7E

$GPGSA,A,3,03,11,18,30,07,22,08,193,01,,,,2.07,1.36,1.56*3D

$GPGSV,4,1,14,28,82,307,12,03,51,104,42,193,45,137,41,42,45,139,31*4E

$GPGSV,4,2,14,01,42,038,28,22,40,069,36,17,39,312,27,11,34,053,32*7B

$GPGSV,4,3,14,30,23,214,21,06,23,241,,19,21,295,,18,19,048,39*7F

$GPGSV,4,4,14,08,11,092,22,07,08,190,33*78

$GPRMC,082411.000,A,3119.1454,N,12123.7515,E,0.00,0.00,250518,,,A*60

$GPVTG,0.00,T,,M,0.00,N,0.0,K,A*0D

$GPGGA,082412.000,3119.1454,N,12123.7515,E,1,09,1.36,-9.6,M,8.0,M,,0000*7D

$GPGSA,A,3,03,11,18,30,07,22,08,193,01,,,,2.07,1.36,1.56*3D

$GPGSV,4,1,14,28,82,307,16,03,51,104,42,193,45,137,41,42,45,139,30*4B

$GPGSV,4,2,14,01,42,038,28,22,40,069,36,17,39,312,27,11,34,053,32*7B

$GPGSV,4,3,14,30,23,214,21,06,23,241,,19,21,295,,18,19,048,39*7F

$GPGSV,4,4,14,08,11,092,23,07,08,190,33*79

$GPRMC,082412.000,A,3119.1454,N,12123.7515,E,0.00,0.00,250518,,,A*63

$GPVTG,0.00,T,,M,0.00,N,0.0,K,A*0D

$GPGGA,082413.000,3119.1454,N,12123.7515,E,1,09,1.36,-9.6,M,8.0,M,,0000*7C

$GPGSA,A,3,03,11,18,30,07,22,08,193,01,,,,2.07,1.36,1.56*3D

$GPGSV,4,1,14,28,82,307,16,03,51,104,42,193,45,137,41,42,45,139,30*4B

$GPGSV,4,2,14,01,42,038,28,22,40,069,36,17,39,312,27,11,34,053,32*7B

$GPGSV,4,3,14,30,23,214,21,06,23,241,,19,21,295,,18,19,048,39*7F

$GPGSV,4,4,14,08,11,092,24,07,08,190,33*7E

$GPRMC,082413.000,A,3119.1454,N,12123.7515,E,0.00,0.00,250518,,,A*62

$GPVTG,0.00,T,,M,0.00,N,0.0,K,A*0D

$GPGGA,082414.000,3119.1454,N,12123.7515,E,1,09,1.36,-9.5,M,8.0,M,,0000*78

$GPGSA,A,3,03,11,18,30,07,22,08,193,01,,,,2.07,1.36,1.56*3D

$GPGSV,4,1,14,28,82,307,17,03,51,104,42,193,45,137,41,42,45,139,30*4A

$GPGSV,4,2,14,01,42,038,28,22,40,069,36,17,39,312,27,11,34,053,32*7B

$GPGSV,4,3,14,30,23,214,21,06,23,241,,19,21,295,,18,19,048,39*7F

$GPGSV,4,4,14,08,10,092,24,07,08,190,33*7F

$GPRMC,082414.000,A,3119.1454,N,12123.7515,E,0.00,0.00,250518,,,A*65

$GPVTG,0.00,T,,M,0.00,N,0.0,K,A*0D

$GPGGA,082415.000,3119.1454,N,12123.7515,E,1,09,1.36,-9.5,M,8.0,M,,0000*79

$GPGSA,A,3,03,11,18,30,07,22,08,193,01,,,,2.07,1.36,1.56*3D

$GPGSV,4,1,14,28,82,307,16,03,51,104,42,193,45,137,41,42,45,139,30*4B

$GPGSV,4,2,14,01,42,038,29,22,40,069,36,17,39,312,27,11,34,053,32*7A

$GPGSV,4,3,14,30,23,214,21,06,23,241,,19,21,295,,18,19,048,39*7F

$GPGSV,4,4,14,08,10,092,25,07,08,190,33*7E

$GPRMC,082415.000,A,3119.1454,N,12123.7515,E,0.00,0.00,250518,,,A*64

$GPVTG,0.00,T,,M,0.00,N,0.0,K,A*0D

$GPGGA,082416.000,3119.1455,N,12123.7515,E,1,09,1.36,-9.5,M,8.0,M,,0000*7B

$GPGSA,A,3,03,11,18,30,07,22,08,193,01,,,,2.07,1.36,1.56*3D

$GPGSV,4,1,14,28,82,307,17,03,51,104,42,193,45,137,41,42,45,139,30*4A

$GPGSV,4,2,14,01,42,038,29,22,40,069,36,17,39,312,27,11,34,053,32*7A

$GPGSV,4,3,14,30,23,214,21,06,23,241,,19,21,295,,18,19,048,39*7F

$GPGSV,4,4,14,08,10,092,26,07,08,190,33*7D

$GPRMC,082416.000,A,3119.1455,N,12123.7515,E,0.00,0.00,250518,,,A*66

$GPVTG,0.00,T,,M,0.00,N,0.0,K,A*0D

$GPGGA,082417.000,3119.1456,N,12123.7511,E,1,10,1.25,-9.3,M,8.0,M,,0000*71

$GPGSA,A,3,03,11,18,30,07,22,08,193,28,01,,,1.81,1.25,1.31*39

$GPGSV,4,1,14,28,82,307,19,03,51,104,42,193,45,137,41,42,45,139,30*44

$GPGSV,4,2,14,01,42,038,29,22,40,069,36,17,39,312,27,11,33,053,33*7C

$GPGSV,4,3,14,30,23,214,21,06,23,241,,19,21,295,,18,19,048,39*7F

$GPGSV,4,4,14,08,10,092,27,07,08,190,33*7C

$GPRMC,082417.000,A,3119.1456,N,12123.7511,E,0.00,0.00,250518,,,A*60

$GPVTG,0.00,T,,M,0.00,N,0.0,K,A*0D

$GPGGA,082418.000,3119.1456,N,12123.7513,E,1,10,1.25,-9.3,M,8.0,M,,0000*7C

$GPGSA,A,3,03,11,18,30,07,22,08,193,28,01,,,1.81,1.25,1.31*39

$GPGSV,4,1,14,28,82,307,20,03,51,104,42,193,45,137,41,42,45,139,31*4F

$GPGSV,4,2,14,01,42,038,29,22,40,069,36,17,39,312,27,11,33,053,33*7C

$GPGSV,4,3,14,30,23,214,21,06,23,241,,19,21,295,,18,19,048,39*7F

$GPGSV,4,4,14,08,10,092,27,07,08,190,33*7C

$GPRMC,082418.000,A,3119.1456,N,12123.7513,E,0.00,0.00,250518,,,A*6D

$GPVTG,0.00,T,,M,0.00,N,0.0,K,A*0D

$GPGGA,082419.000,3119.1456,N,12123.7514,E,1,10,1.25,-9.3,M,8.0,M,,0000*7A

$GPGSA,A,3,03,11,18,30,07,22,08,193,28,01,,,1.81,1.25,1.31*39

$GPGSV,4,1,14,28,82,307,20,03,51,104,42,193,45,137,41,42,45,139,31*4F

$GPGSV,4,2,14,01,42,038,29,22,40,069,36,17,39,312,27,11,33,053,33*7C

$GPGSV,4,3,14,30,23,214,22,06,23,241,,19,21,295,,18,19,048,39*7C

$GPGSV,4,4,14,08,10,092,28,07,08,190,33*73

$GPRMC,082419.000,A,3119.1456,N,12123.7514,E,0.00,0.00,250518,,,A*6B

$GPVTG,0.00,T,,M,0.00,N,0.0,K,A*0D

$GPGGA,082420.000,3119.1455,N,12123.7516,E,1,10,1.25,-9.5,M,8.0,M,,0000*77

$GPGSA,A,3,03,11,18,30,07,22,08,193,28,01,,,1.81,1.25,1.31*39

$GPGSV,4,1,14,28,82,307,20,03,51,104,42,193,45,137,41,42,45,139,31*4F

$GPGSV,4,2,14,01,42,038,30,22,40,069,36,17,39,312,27,11,33,053,34*73

$GPGSV,4,3,14,30,23,214,22,06,23,241,,19,21,295,,18,19,048,39*7C

$GPGSV,4,4,14,08,10,092,28,07,08,190,34*74

$GPRMC,082420.000,A,3119.1455,N,12123.7516,E,0.00,0.00,250518,,,A*60

$GPVTG,0.00,T,,M,0.00,N,0.0,K,A*0D

$GPGGA,082421.000,3119.1454,N,12123.7518,E,1,10,1.25,-9.6,M,8.0,M,,0000*7A

$GPGSA,A,3,03,11,18,30,07,22,08,193,28,01,,,1.81,1.25,1.31*39

$GPGSV,4,1,14,28,82,307,21,03,51,104,42,193,45,137,41,42,45,139,31*4E

$GPGSV,4,2,14,01,42,038,30,22,40,069,36,17,39,312,27,11,33,053,34*73

$GPGSV,4,3,14,30,23,214,22,06,23,241,,19,21,295,,18,19,048,39*7C

$GPGSV,4,4,14,08,10,092,28,07,08,190,34*74

$GPRMC,082421.000,A,3119.1454,N,12123.7518,E,0.00,0.00,250518,,,A*6E

$GPVTG,0.00,T,,M,0.00,N,0.0,K,A*0D

$GPGGA,082422.000,3119.1454,N,12123.7519,E,1,10,1.25,-9.6,M,8.0,M,,0000*78

$GPGSA,A,3,03,11,18,30,07,22,08,193,28,01,,,1.81,1.25,1.31*39

$GPGSV,4,1,14,28,82,307,22,03,51,104,42,193,45,137,41,42,45,139,31*4D

$GPGSV,4,2,14,01,42,038,30,22,40,069,37,17,39,312,27,11,33,053,34*72

$GPGSV,4,3,14,30,23,214,23,06,23,241,,19,21,295,,18,19,048,39*7D

$GPGSV,4,4,14,08,10,092,27,07,08,190,34*7B

$GPRMC,082422.000,A,3119.1454,N,12123.7519,E,0.00,0.00,250518,,,A*6C

$GPVTG,0.00,T,,M,0.00,N,0.0,K,A*0D

$GPGGA,082423.000,3119.1454,N,12123.7519,E,1,10,1.25,-9.6,M,8.0,M,,0000*79

$GPGSA,A,3,03,11,18,30,07,22,08,193,28,01,,,1.81,1.25,1.31*39

$GPGSV,4,1,14,28,82,307,23,03,51,104,42,193,45,137,41,42,45,139,31*4C

$GPGSV,4,2,14,01,42,038,30,22,40,069,37,17,39,312,27,11,33,053,34*72

$GPGSV,4,3,14,30,23,214,23,06,23,241,,19,21,295,,18,19,048,39*7D

$GPGSV,4,4,14,08,10,092,27,07,08,190,34*7B

$GPRMC,082423.000,A,3119.1454,N,12123.7519,E,0.00,0.00,250518,,,A*6D

$GPVTG,0.00,T,,M,0.00,N,0.0,K,A*0D

$GPGGA,082424.000,3119.1454,N,12123.7519,E,1,10,1.25,-9.6,M,8.0,M,,0000*7E

$GPGSA,A,3,03,11,18,30,07,22,08,193,28,01,,,1.81,1.25,1.31*39

$GPGSV,4,1,14,28,82,307,23,03,51,104,41,193,45,137,41,42,45,139,31*4F

$GPGSV,4,2,14,01,42,038,30,22,40,069,37,17,39,312,27,11,33,053,34*72

$GPGSV,4,3,14,30,23,214,23,06,23,241,,19,21,295,,18,18,048,39*7C

$GPGSV,4,4,14,08,10,092,26,07,08,190,34*7A

$GPRMC,082424.000,A,3119.1454,N,12123.7519,E,0.00,0.00,250518,,,A*6A

$GPVTG,0.00,T,,M,0.00,N,0.0,K,A*0D

$GPGGA,082425.000,3119.1454,N,12123.7519,E,1,11,0.91,-9.6,M,8.0,M,,0000*70

$GPGSA,A,3,03,11,18,30,07,22,08,193,28,17,01,,1.57,0.91,1.29*33

$GPGSV,4,1,14,28,82,307,23,03,51,104,40,193,45,137,41,42,45,139,31*4E

$GPGSV,4,2,14,01,42,038,30,22,40,069,37,17,39,312,26,11,33,053,34*73

$GPGSV,4,3,14,30,23,214,23,06,23,241,,19,21,295,,18,18,048,39*7C

$GPGSV,4,4,14,08,10,092,26,07,08,190,34*7A

$GPRMC,082425.000,A,3119.1454,N,12123.7519,E,0.00,0.00,250518,,,A*6B

$GPVTG,0.00,T,,M,0.00,N,0.0,K,A*0D

$GPGGA,082426.000,3119.1454,N,12123.7519,E,1,11,0.91,-9.6,M,8.0,M,,0000*73

$GPGSA,A,3,03,11,18,30,07,22,08,193,28,17,01,,1.57,0.91,1.29*33

$GPGSV,4,1,14,28,82,307,23,03,51,104,40,193,45,137,41,42,45,139,31*4E

$GPGSV,4,2,14,01,42,038,29,22,40,069,37,17,39,312,26,11,33,053,34*7B

$GPGSV,4,3,14,30,23,214,23,06,23,241,,19,21,295,,18,18,048,39*7C

$GPGSV,4,4,14,08,10,092,25,07,08,190,34*79

$GPRMC,082426.000,A,3119.1454,N,12123.7519,E,0.00,0.00,250518,,,A*68

$GPVTG,0.00,T,,M,0.00,N,0.0,K,A*0D

$GPGGA,082427.000,3119.1454,N,12123.7519,E,1,11,0.91,-9.6,M,8.0,M,,0000*72

$GPGSA,A,3,03,11,18,30,07,22,08,193,28,17,01,,1.57,0.91,1.29*33

$GPGSV,4,1,14,28,82,307,23,03,51,104,40,193,45,137,41,42,45,139,30*4F

$GPGSV,4,2,14,01,42,038,29,22,40,069,37,17,39,312,26,11,33,053,34*7B

$GPGSV,4,3,14,30,23,214,23,06,23,241,,19,21,295,,18,18,048,39*7C

$GPGSV,4,4,14,08,10,092,24,07,08,190,34*78

$GPRMC,082427.000,A,3119.1454,N,12123.7519,E,0.00,0.00,250518,,,A*69

$GPVTG,0.00,T,,M,0.00,N,0.0,K,A*0D

$GPGGA,082428.000,3119.1454,N,12123.7519,E,1,11,0.91,-9.6,M,8.0,M,,0000*7D

$GPGSA,A,3,03,11,18,30,07,22,08,193,28,17,01,,1.57,0.91,1.29*33

$GPGSV,4,1,14,28,82,307,23,03,51,104,40,193,45,137,41,42,45,139,30*4F

$GPGSV,4,2,14,01,42,038,29,22,40,069,37,17,39,312,26,11,33,053,35*7A

$GPGSV,4,3,14,30,23,214,23,06,23,241,,19,21,295,,18,18,048,39*7C

$GPGSV,4,4,14,08,10,092,24,07,08,190,34*78

$GPRMC,082428.000,A,3119.1454,N,12123.7519,E,0.00,0.00,250518,,,A*66

$GPVTG,0.00,T,,M,0.00,N,0.0,K,A*0D

$GPGGA,082429.000,3119.1454,N,12123.7519,E,1,11,0.91,-9.6,M,8.0,M,,0000*7C

$GPGSA,A,3,03,11,18,30,07,22,08,193,28,17,01,,1.57,0.91,1.29*33

$GPGSV,4,1,14,28,82,307,23,03,51,104,40,193,45,137,41,42,45,139,30*4F

$GPGSV,4,2,14,01,42,038,29,22,40,069,37,17,39,312,26,11,33,053,35*7A

$GPGSV,4,3,14,30,23,214,24,06,23,241,,19,21,295,,18,18,048,39*7B

$GPGSV,4,4,14,08,10,092,24,07,08,190,34*78

$GPRMC,082429.000,A,3119.1454,N,12123.7519,E,0.00,0.00,250518,,,A*67

$GPVTG,0.00,T,,M,0.00,N,0.0,K,A*0D

$GPGGA,082430.000,3119.1454,N,12123.7519,E,1,11,0.91,-9.6,M,8.0,M,,0000*74

$GPGSA,A,3,03,11,18,30,07,22,08,193,28,17,01,,1.57,0.91,1.29*33

$GPGSV,4,1,14,28,82,307,23,03,51,104,39,193,45,137,41,42,45,139,30*41

$GPGSV,4,2,14,01,42,038,28,22,40,069,37,17,39,312,26,11,33,053,35*7B

$GPGSV,4,3,14,30,23,214,24,06,23,241,,19,21,295,,18,18,048,39*7B

$GPGSV,4,4,14,08,10,092,23,07,08,190,34*7F

$GPRMC,082430.000,A,3119.1454,N,12123.7519,E,0.00,0.00,250518,,,A*6F

$GPVTG,0.00,T,,M,0.00,N,0.0,K,A*0D

$GPGGA,082431.000,3119.1454,N,12123.7519,E,1,11,0.91,-9.6,M,8.0,M,,0000*75

$GPGSA,A,3,03,11,18,30,07,22,08,193,28,17,01,,1.57,0.91,1.29*33

$GPGSV,4,1,14,28,82,307,23,03,51,104,39,193,45,137,41,42,45,139,30*41

$GPGSV,4,2,14,01,42,038,27,22,40,069,37,17,39,312,27,11,33,053,35*75

$GPGSV,4,3,14,30,23,214,24,06,23,241,,19,21,295,,18,18,048,39*7B

$GPGSV,4,4,14,08,10,092,23,07,08,190,34*7F

$GPRMC,082431.000,A,3119.1454,N,12123.7519,E,0.00,0.00,250518,,,A*6E

$GPVTG,0.00,T,,M,0.00,N,0.0,K,A*0D

$GPGGA,082432.000,3119.1454,N,12123.7519,E,1,11,0.91,-9.5,M,8.0,M,,0000*75

$GPGSA,A,3,03,11,18,30,07,22,08,193,28,17,01,,1.57,0.91,1.29*33

$GPGSV,4,1,14,28,82,307,24,03,51,104,39,193,45,137,40,42,45,139,30*47

$GPGSV,4,2,14,01,42,038,26,22,40,069,37,17,39,312,27,11,33,053,35*74

$GPGSV,4,3,14,30,23,214,25,06,23,241,,19,21,295,,18,18,048,39*7A

$GPGSV,4,4,14,08,10,092,23,07,08,190,34*7F

$GPRMC,082432.000,A,3119.1454,N,12123.7519,E,0.00,0.00,250518,,,A*6D

$GPVTG,0.00,T,,M,0.00,N,0.0,K,A*0D

$GPGGA,082433.000,3119.1454,N,12123.7519,E,1,11,0.91,-9.5,M,8.0,M,,0000*74

$GPGSA,A,3,03,11,18,30,07,22,08,193,28,17,01,,1.57,0.91,1.28*32

$GPGSV,4,1,14,28,82,307,24,03,51,104,39,193,45,137,40,42,45,139,30*47

$GPGSV,4,2,14,01,42,038,26,22,40,069,37,17,39,312,27,11,33,053,35*74

$GPGSV,4,3,14,30,23,214,25,06,23,241,,19,21,295,,18,18,048,39*7A

$GPGSV,4,4,14,08,10,092,22,07,08,190,34*7E

$GPRMC,082433.000,A,3119.1454,N,12123.7519,E,0.00,0.00,250518,,,A*6C

$GPVTG,0.00,T,,M,0.00,N,0.0,K,A*0D

$GPGGA,082434.000,3119.1454,N,12123.7518,E,1,11,0.91,-9.5,M,8.0,M,,0000*72

$GPGSA,A,3,03,11,18,30,07,22,08,193,28,17,01,,1.57,0.91,1.28*32

$GPGSV,4,1,14,28,82,306,25,03,51,104,39,193,45,137,40,42,45,139,30*47

$GPGSV,4,2,14,01,42,038,26,22,40,069,37,17,39,312,27,11,33,053,35*74

$GPGSV,4,3,14,30,23,214,25,06,23,241,,19,21,295,,18,18,048,39*7A

$GPGSV,4,4,14,08,10,092,21,07,08,190,34*7D

$GPRMC,082434.000,A,3119.1454,N,12123.7518,E,0.00,0.00,250518,,,A*6A

$GPVTG,0.00,T,,M,0.00,N,0.0,K,A*0D

$GPGGA,082435.000,3119.1454,N,12123.7518,E,1,11,0.91,-9.5,M,8.0,M,,0000*73

$GPGSA,A,3,03,11,18,30,07,22,08,193,28,17,01,,1.57,0.91,1.28*32

$GPGSV,4,1,14,28,82,306,25,03,51,104,39,193,45,137,40,42,45,139,30*47

$GPGSV,4,2,14,01,42,038,26,22,40,069,37,17,39,312,28,11,33,053,35*7B

$GPGSV,4,3,14,30,23,214,25,06,23,241,,19,21,295,,18,18,048,39*7A

$GPGSV,4,4,14,08,10,092,21,07,08,190,34*7D

$GPRMC,082435.000,A,3119.1454,N,12123.7518,E,0.00,0.00,250518,,,A*6B

$GPVTG,0.00,T,,M,0.00,N,0.0,K,A*0D

$GPGGA,082436.000,3119.1454,N,12123.7518,E,1,11,0.91,-9.5,M,8.0,M,,0000*70

$GPGSA,A,3,03,11,18,30,07,22,08,193,28,17,01,,1.57,0.91,1.28*32

$GPGSV,4,1,14,28,82,306,25,03,51,104,39,193,45,137,40,42,45,139,30*47

$GPGSV,4,2,14,01,42,038,26,22,40,069,37,17,39,312,29,11,33,053,35*7A

$GPGSV,4,3,14,06,23,241,,30,22,214,25,19,21,295,,18,18,048,39*7B

$GPGSV,4,4,14,08,10,092,22,07,08,190,34*7E

$GPRMC,082436.000,A,3119.1454,N,12123.7518,E,0.00,0.00,250518,,,A*68

$GPVTG,0.00,T,,M,0.00,N,0.0,K,A*0D

$GPGGA,082437.000,3119.1454,N,12123.7518,E,1,11,0.91,-9.5,M,8.0,M,,0000*71

$GPGSA,A,3,03,11,18,30,07,22,08,193,28,17,01,,1.57,0.91,1.28*32

$GPGSV,4,1,14,28,82,306,25,03,51,104,39,193,45,137,40,42,45,139,30*47

$GPGSV,4,2,14,01,42,038,27,22,40,069,37,17,39,312,29,11,33,053,35*7B

$GPGSV,4,3,14,06,23,241,,30,22,214,25,19,21,295,,18,18,048,39*7B

$GPGSV,4,4,14,08,10,092,21,07,08,190,34*7D

$GPRMC,082437.000,A,3119.1454,N,12123.7518,E,0.00,0.00,250518,,,A*69

$GPVTG,0.00,T,,M,0.00,N,0.0,K,A*0D

$GPGGA,082438.000,3119.1454,N,12123.7518,E,1,11,0.91,-9.5,M,8.0,M,,0000*7E

$GPGSA,A,3,03,11,18,30,07,22,08,193,28,17,01,,1.57,0.91,1.28*32

$GPGSV,4,1,14,28,82,306,25,03,51,104,39,193,45,137,40,42,45,139,30*47

$GPGSV,4,2,14,01,42,038,28,22,40,069,37,17,39,312,29,11,33,053,35*74

$GPGSV,4,3,14,06,23,241,,30,22,214,25,19,21,295,,18,18,048,39*7B

$GPGSV,4,4,14,08,10,092,22,07,08,190,33*79

$GPRMC,082438.000,A,3119.1454,N,12123.7518,E,0.00,0.00,250518,,,A*66

$GPVTG,0.00,T,,M,0.00,N,0.0,K,A*0D

$GPGGA,082439.000,3119.1454,N,12123.7518,E,1,11,0.91,-9.5,M,8.0,M,,0000*7F

$GPGSA,A,3,03,11,18,30,07,22,08,193,28,17,01,,1.57,0.91,1.28*32

$GPGSV,4,1,14,28,82,306,24,03,51,104,39,193,45,137,40,42,45,139,30*46

$GPGSV,4,2,14,01,42,038,28,22,40,069,37,17,39,312,29,11,33,053,35*74

$GPGSV,4,3,14,06,23,241,,30,22,214,25,19,21,295,,18,18,048,39*7B

$GPGSV,4,4,14,08,10,092,22,07,08,190,33*79

$GPRMC,082439.000,A,3119.1454,N,12123.7518,E,0.00,0.00,250518,,,A*67

$GPVTG,0.00,T,,M,0.00,N,0.0,K,A*0D

$GPGGA,082440.000,3119.1454,N,12123.7518,E,1,11,0.91,-9.5,M,8.0,M,,0000*71

$GPGSA,A,3,03,11,18,30,07,22,08,193,28,17,01,,1.57,0.91,1.28*32

$GPGSV,4,1,14,28,82,306,24,03,51,104,39,193,45,137,40,42,45,139,30*46

$GPGSV,4,2,14,01,42,038,28,22,40,069,37,17,39,312,29,11,33,053,35*74

$GPGSV,4,3,14,06,23,241,,30,22,214,25,19,21,295,,18,18,048,39*7B

$GPGSV,4,4,14,08,10,092,23,07,08,190,33*78

$GPRMC,082440.000,A,3119.1454,N,12123.7518,E,0.00,0.00,250518,,,A*69

$GPVTG,0.00,T,,M,0.00,N,0.0,K,A*0D

$GPGGA,082441.000,3119.1454,N,12123.7518,E,1,11,0.91,-9.5,M,8.0,M,,0000*70

$GPGSA,A,3,03,11,18,30,07,22,08,193,28,17,01,,1.57,0.91,1.28*32

$GPGSV,4,1,14,28,82,306,24,03,51,104,39,193,45,137,40,42,45,139,30*46

$GPGSV,4,2,14,01,42,038,28,22,40,069,37,17,39,312,29,11,33,053,36*77

$GPGSV,4,3,14,06,23,241,,30,22,214,25,19,21,295,,18,18,048,39*7B

$GPGSV,4,4,14,08,10,092,23,07,08,190,33*78

$GPRMC,082441.000,A,3119.1454,N,12123.7518,E,0.00,0.00,250518,,,A*68

$GPVTG,0.00,T,,M,0.00,N,0.0,K,A*0D

$GPGGA,082442.000,3119.1454,N,12123.7518,E,1,11,0.91,-9.5,M,8.0,M,,0000*73

$GPGSA,A,3,03,11,18,30,07,22,08,193,28,17,01,,1.57,0.91,1.28*32

$GPGSV,4,1,14,28,82,306,24,03,51,104,39,193,45,137,40,42,45,139,30*46

$GPGSV,4,2,14,01,42,038,28,22,40,069,37,17,39,312,29,11,33,053,36*77

$GPGSV,4,3,14,06,23,241,,30,22,214,25,19,21,295,,18,18,048,39*7B

$GPGSV,4,4,14,08,10,092,23,07,08,190,33*78

$GPRMC,082442.000,A,3119.1454,N,12123.7518,E,0.00,0.00,250518,,,A*6B

$GPVTG,0.00,T,,M,0.00,N,0.0,K,A*0D

$GPGGA,082443.000,3119.1454,N,12123.7518,E,1,11,0.91,-9.5,M,8.0,M,,0000*72

$GPGSA,A,3,03,11,18,30,07,22,08,193,28,17,01,,1.57,0.91,1.28*32

$GPGSV,4,1,14,28,82,306,24,03,51,104,39,193,45,137,40,42,45,139,30*46

$GPGSV,4,2,14,01,42,038,28,22,40,069,37,17,39,312,29,11,33,053,36*77

$GPGSV,4,3,14,06,23,241,,30,22,214,25,19,21,295,,18,18,048,39*7B

$GPGSV,4,4,14,08,10,092,23,07,08,190,33*78

$GPRMC,082443.000,A,3119.1454,N,12123.7518,E,0.00,0.00,250518,,,A*6A

$GPVTG,0.00,T,,M,0.00,N,0.0,K,A*0D

$GPGGA,082444.000,3119.1454,N,12123.7518,E,1,11,0.91,-9.5,M,8.0,M,,0000*75

$GPGSA,A,3,03,11,18,30,07,22,08,193,28,17,01,,1.57,0.91,1.28*32

$GPGSV,4,1,14,28,82,306,23,03,51,104,39,193,45,137,40,42,45,139,30*41

$GPGSV,4,2,14,01,42,038,28,22,40,069,37,17,39,312,29,11,33,053,36*77

$GPGSV,4,3,14,06,23,241,,30,22,214,25,19,21,295,,18,18,048,39*7B

$GPGSV,4,4,14,08,10,092,23,07,08,190,33*78

$GPRMC,082444.000,A,3119.1454,N,12123.7518,E,0.00,0.00,250518,,,A*6D

$GPVTG,0.00,T,,M,0.00,N,0.0,K,A*0D

$GPGGA,082445.000,3119.1454,N,12123.7518,E,1,11,0.91,-9.5,M,8.0,M,,0000*74

$GPGSA,A,3,03,11,18,30,07,22,08,193,28,17,01,,1.57,0.91,1.28*32

$GPGSV,4,1,14,28,82,306,23,03,51,104,39,193,45,137,40,42,45,139,31*40

$GPGSV,4,2,14,01,42,038,28,22,40,069,37,17,39,312,29,11,33,053,36*77

$GPGSV,4,3,14,06,23,241,,30,22,214,26,19,21,295,,18,18,048,39*78

$GPGSV,4,4,14,08,10,092,23,07,08,190,33*78

$GPRMC,082445.000,A,3119.1454,N,12123.7518,E,0.00,0.00,250518,,,A*6C

$GPVTG,0.00,T,,M,0.00,N,0.0,K,A*0D

$GPGGA,082446.000,3119.1454,N,12123.7518,E,1,11,0.91,-9.5,M,8.0,M,,0000*77

$GPGSA,A,3,03,11,18,30,07,22,08,193,28,17,01,,1.57,0.91,1.28*32

$GPGSV,4,1,14,28,82,306,23,03,51,104,39,193,45,137,40,42,45,139,31*40

$GPGSV,4,2,14,01,42,038,28,22,40,069,37,17,39,312,29,11,33,053,36*77

$GPGSV,4,3,14,06,23,241,,30,22,214,25,19,21,295,,18,18,048,39*7B

$GPGSV,4,4,14,08,10,092,22,07,08,190,33*79

$GPRMC,082446.000,A,3119.1454,N,12123.7518,E,0.00,0.00,250518,,,A*6F

$GPVTG,0.00,T,,M,0.00,N,0.0,K,A*0D

$GPGGA,082447.000,3119.1454,N,12123.7518,E,1,11,0.91,-9.5,M,8.0,M,,0000*76

$GPGSA,A,3,03,11,18,30,07,22,08,193,28,17,01,,1.57,0.91,1.28*32

$GPGSV,4,1,14,28,82,306,22,03,51,104,39,193,45,137,40,42,45,139,31*41

$GPGSV,4,2,14,01,42,038,28,22,40,069,37,17,39,312,29,11,33,053,36*77

$GPGSV,4,3,14,06,23,241,,30,22,214,25,19,21,295,,18,18,048,39*7B

$GPGSV,4,4,14,08,10,092,21,07,08,190,33*7A

$GPRMC,082447.000,A,3119.1454,N,12123.7518,E,0.00,0.00,250518,,,A*6E

$GPVTG,0.00,T,,M,0.00,N,0.0,K,A*0D

$GPGGA,082448.000,3119.1454,N,12123.7518,E,1,11,0.91,-9.5,M,8.0,M,,0000*79

$GPGSA,A,3,03,11,18,30,07,22,08,193,28,17,01,,1.57,0.91,1.28*32

$GPGSV,4,1,14,28,82,306,22,03,51,104,39,193,45,137,40,42,45,139,31*41

$GPGSV,4,2,14,01,42,038,28,22,40,069,37,17,39,312,29,11,33,053,36*77

$GPGSV,4,3,14,06,23,241,,30,22,214,25,19,21,295,,18,18,048,39*7B

$GPGSV,4,4,14,08,10,092,21,07,08,190,33*7A

$GPRMC,082448.000,A,3119.1454,N,12123.7518,E,0.00,0.00,250518,,,A*61

$GPVTG,0.00,T,,M,0.00,N,0.0,K,A*0D

$GPGGA,082449.000,3119.1454,N,12123.7518,E,1,11,0.91,-9.5,M,8.0,M,,0000*78

$GPGSA,A,3,03,11,18,30,07,22,08,193,28,17,01,,1.57,0.91,1.28*32

$GPGSV,4,1,14,28,82,306,22,03,51,104,40,193,45,137,40,42,45,139,31*4F

$GPGSV,4,2,14,01,42,038,28,22,40,069,37,17,39,312,29,11,33,053,36*77

$GPGSV,4,3,14,06,23,241,,30,22,214,25,19,21,295,,18,18,048,39*7B

$GPGSV,4,4,14,08,10,092,20,07,08,190,33*7B

$GPRMC,082449.000,A,3119.1454,N,12123.7518,E,0.00,0.00,250518,,,A*60

$GPVTG,0.00,T,,M,0.00,N,0.0,K,A*0D

$GPGGA,082450.000,3119.1454,N,12123.7518,E,1,11,0.91,-9.5,M,8.0,M,,0000*70

$GPGSA,A,3,03,11,18,30,07,22,08,193,28,17,01,,1.57,0.91,1.28*32

$GPGSV,4,1,14,28,82,306,22,03,51,104,40,193,45,137,40,42,45,139,31*4F

$GPGSV,4,2,14,01,42,038,28,22,40,069,37,17,39,312,28,11,33,053,36*76

$GPGSV,4,3,14,06,23,241,,30,22,214,25,19,21,295,,18,18,048,39*7B

$GPGSV,4,4,14,08,10,092,19,07,08,190,33*71

$GPRMC,082450.000,A,3119.1454,N,12123.7518,E,0.00,0.00,250518,,,A*68

$GPVTG,0.00,T,,M,0.00,N,0.0,K,A*0D

$GPGGA,082451.000,3119.1454,N,12123.7518,E,1,11,0.91,-9.5,M,8.0,M,,0000*71

$GPGSA,A,3,03,11,18,30,07,22,08,193,28,17,01,,1.57,0.91,1.28*32

$GPGSV,4,1,14,28,82,306,22,03,51,104,40,193,45,137,40,42,45,139,31*4F

$GPGSV,4,2,14,01,42,038,28,22,40,069,37,17,39,312,28,11,33,053,36*76

$GPGSV,4,3,14,06,23,241,,30,22,214,25,19,21,295,,18,18,048,39*7B

$GPGSV,4,4,14,08,10,092,18,07,08,190,33*70

$GPRMC,082451.000,A,3119.1454,N,12123.7518,E,0.00,0.00,250518,,,A*69

$GPVTG,0.00,T,,M,0.00,N,0.0,K,A*0D

$GPGGA,082452.000,3119.1454,N,12123.7518,E,1,11,0.91,-9.5,M,8.0,M,,0000*72

$GPGSA,A,3,03,11,18,30,07,22,08,193,28,17,01,,1.57,0.91,1.28*32

$GPGSV,4,1,14,28,82,306,22,03,51,104,40,193,45,137,40,42,45,139,31*4F

$GPGSV,4,2,14,01,42,038,28,22,40,069,37,17,39,312,27,11,33,053,36*79

$GPGSV,4,3,14,06,23,241,,30,22,214,25,19,21,295,,18,18,048,39*7B

$GPGSV,4,4,14,08,10,092,18,07,08,190,34*77

$GPRMC,082452.000,A,3119.1454,N,12123.7518,E,0.00,0.00,250518,,,A*6A

$GPVTG,0.00,T,,M,0.00,N,0.0,K,A*0D

$GPGGA,082453.000,3119.1454,N,12123.7518,E,1,10,0.96,-9.5,M,8.0,M,,0000*75

$GPGSA,A,3,03,11,18,30,07,22,193,28,17,01,,,1.71,0.96,1.42*35

$GPGSV,4,1,14,28,82,306,22,03,51,104,41,193,45,137,40,42,45,139,31*4E

$GPGSV,4,2,14,01,42,038,28,22,40,069,37,17,39,312,27,11,33,053,36*79

$GPGSV,4,3,14,06,23,241,,30,22,214,25,19,21,295,,18,18,048,39*7B

$GPGSV,4,4,14,08,10,092,17,07,08,190,34*78

$GPRMC,082453.000,A,3119.1454,N,12123.7518,E,0.00,0.00,250518,,,A*6B

$GPVTG,0.00,T,,M,0.00,N,0.0,K,A*0D

$GPGGA,082454.000,3119.1454,N,12123.7518,E,1,10,0.96,-9.5,M,8.0,M,,0000*72

$GPGSA,A,3,03,11,18,30,07,22,193,28,17,01,,,1.71,0.96,1.42*35

$GPGSV,4,1,14,28,82,306,21,03,51,104,41,193,45,137,40,42,45,139,31*4D

$GPGSV,4,2,14,01,42,038,29,22,40,069,37,17,39,312,26,11,33,053,36*79

$GPGSV,4,3,14,06,23,241,,30,22,214,25,19,21,295,,18,18,048,39*7B

$GPGSV,4,4,14,08,10,092,17,07,08,190,34*78

$GPRMC,082454.000,A,3119.1454,N,12123.7518,E,0.00,0.00,250518,,,A*6C

$GPVTG,0.00,T,,M,0.00,N,0.0,K,A*0D

$GPGGA,082455.000,3119.1454,N,12123.7518,E,1,10,0.96,-9.5,M,8.0,M,,0000*73

$GPGSA,A,3,03,11,18,30,07,22,193,28,17,01,,,1.71,0.96,1.42*35

$GPGSV,4,1,14,28,82,306,21,03,51,104,41,193,45,137,40,42,45,139,31*4D

$GPGSV,4,2,14,01,42,038,29,22,40,069,38,17,39,312,26,11,33,053,36*76

$GPGSV,4,3,14,06,23,241,,30,22,214,25,19,21,295,,18,18,048,39*7B

$GPGSV,4,4,14,08,10,092,17,07,08,190,34*78

$GPRMC,082455.000,A,3119.1454,N,12123.7518,E,0.00,0.00,250518,,,A*6D

$GPVTG,0.00,T,,M,0.00,N,0.0,K,A*0D

$GPGGA,082456.000,3119.1454,N,12123.7519,E,1,10,0.92,-9.5,M,8.0,M,,0000*75

$GPGSA,A,3,03,11,18,30,07,22,08,193,17,01,,,1.79,0.92,1.54*3C

$GPGSV,4,1,14,28,82,306,20,03,51,104,41,193,45,137,40,42,45,139,32*4F

$GPGSV,4,2,14,01,42,038,29,22,40,069,38,17,39,312,26,11,33,053,36*76

$GPGSV,4,3,14,06,23,241,,30,22,214,25,19,21,295,,18,18,048,40*75

$GPGSV,4,4,14,08,10,092,17,07,08,190,34*78

$GPRMC,082456.000,A,3119.1454,N,12123.7519,E,0.00,0.00,250518,,,A*6F

$GPVTG,0.00,T,,M,0.00,N,0.0,K,A*0D

$GPGGA,082457.000,3119.1453,N,12123.7519,E,1,10,0.92,-9.4,M,8.0,M,,0000*72

$GPGSA,A,3,03,11,18,30,07,22,08,193,17,01,,,1.79,0.92,1.54*3C

$GPGSV,4,1,14,28,82,306,19,03,51,104,41,193,45,137,40,42,45,139,32*45

$GPGSV,4,2,14,01,42,038,29,22,40,069,38,17,39,312,26,11,33,053,36*76

$GPGSV,4,3,14,06,23,241,,30,22,214,26,19,21,295,,18,18,048,40*76

$GPGSV,4,4,14,08,10,092,18,07,08,190,34*77

$GPRMC,082457.000,A,3119.1453,N,12123.7519,E,0.00,0.00,250518,,,A*69

$GPVTG,0.00,T,,M,0.00,N,0.0,K,A*0D

$GPGGA,082458.000,3119.1454,N,12123.7518,E,1,10,0.92,-9.2,M,8.0,M,,0000*7D

$GPGSA,A,3,03,11,18,30,07,22,08,193,17,01,,,1.79,0.92,1.54*3C

$GPGSV,4,1,14,28,82,306,19,03,51,104,41,193,45,137,40,42,45,139,32*45

$GPGSV,4,2,14,01,42,038,29,22,40,069,38,17,39,312,26,11,33,053,36*76

$GPGSV,4,3,14,06,23,241,,30,22,214,26,19,21,295,,18,18,048,40*76

$GPGSV,4,4,14,08,10,092,19,07,08,190,34*76

$GPRMC,082458.000,A,3119.1454,N,12123.7518,E,0.00,0.00,250518,,,A*60

$GPVTG,0.00,T,,M,0.00,N,0.0,K,A*0D

$GPGGA,082459.000,3119.1454,N,12123.7518,E,1,10,0.92,-9.1,M,8.0,M,,0000*7F

$GPGSA,A,3,03,11,18,30,07,22,08,193,17,01,,,1.79,0.92,1.54*3C

$GPGSV,4,1,14,28,82,306,19,03,51,104,41,193,45,137,40,42,45,139,32*45

$GPGSV,4,2,14,01,42,038,28,22,40,069,38,17,39,312,26,11,33,053,36*77

$GPGSV,4,3,14,06,23,241,,30,22,214,26,19,21,295,,18,18,048,40*76

$GPGSV,4,4,14,08,10,092,20,07,08,190,34*7C

$GPRMC,082459.000,A,3119.1454,N,12123.7518,E,0.00,0.00,250518,,,A*61

$GPVTG,0.00,T,,M,0.00,N,0.0,K,A*0D

$GPGGA,082500.000,3119.1454,N,12123.7518,E,1,10,0.92,-9.1,M,8.0,M,,0000*72

$GPGSA,A,3,03,11,18,30,07,22,08,193,17,01,,,1.79,0.92,1.54*3C

$GPGSV,4,1,14,28,82,306,19,03,51,104,41,193,45,137,40,42,45,139,31*46

$GPGSV,4,2,14,01,42,038,27,22,40,069,38,17,39,312,26,11,33,053,36*78

$GPGSV,4,3,14,06,23,241,,30,22,214,26,19,22,296,,18,18,048,40*76

$GPGSV,4,4,14,08,10,092,20,07,08,190,34*7C

$GPRMC,082500.000,A,3119.1454,N,12123.7518,E,0.00,0.00,250518,,,A*6C

$GPVTG,0.00,T,,M,0.00,N,0.0,K,A*0D

$GPGGA,082501.000,3119.1454,N,12123.7518,E,1,10,0.92,-9.1,M,8.0,M,,0000*73

$GPGSA,A,3,03,11,18,30,07,22,08,193,17,01,,,1.79,0.92,1.54*3C

$GPGSV,4,1,14,28,82,306,18,03,51,104,41,193,45,137,40,42,45,139,31*47

$GPGSV,4,2,14,01,42,038,26,22,40,069,38,17,39,312,26,11,33,053,36*79

$GPGSV,4,3,14,06,23,241,,30,22,214,27,19,22,296,,18,18,048,40*77

$GPGSV,4,4,14,08,10,092,21,07,08,190,34*7D

$GPRMC,082501.000,A,3119.1454,N,12123.7518,E,0.00,0.00,250518,,,A*6D

$GPVTG,0.00,T,,M,0.00,N,0.0,K,A*0D

$GPGGA,082502.000,3119.1454,N,12123.7518,E,1,10,0.92,-9.0,M,8.0,M,,0000*71

$GPGSA,A,3,03,11,18,30,07,22,08,193,17,01,,,1.79,0.92,1.54*3C

$GPGSV,4,1,14,28,82,306,18,03,51,104,41,193,45,137,40,42,45,139,31*47

$GPGSV,4,2,14,01,42,038,25,22,40,069,38,17,39,312,26,11,33,053,36*7A

$GPGSV,4,3,14,06,23,241,,30,22,214,27,19,22,296,,18,18,048,40*77

$GPGSV,4,4,14,08,10,092,21,07,08,190,34*7D

$GPRMC,082502.000,A,3119.1454,N,12123.7518,E,0.00,0.00,250518,,,A*6E

$GPVTG,0.00,T,,M,0.00,N,0.0,K,A*0D

$GPGGA,082503.000,3119.1454,N,12123.7518,E,1,10,0.92,-9.0,M,8.0,M,,0000*70

$GPGSA,A,3,03,11,18,30,07,22,08,193,17,01,,,1.79,0.92,1.54*3C

$GPGSV,4,1,14,28,82,306,18,03,51,104,41,193,45,137,40,42,45,139,31*47

$GPGSV,4,2,14,01,42,038,25,22,40,068,38,17,39,312,26,11,33,053,36*7B

$GPGSV,4,3,14,06,23,241,,30,22,214,27,19,22,296,,18,18,048,40*77

$GPGSV,4,4,14,08,10,092,21,07,08,190,34*7D

$GPRMC,082503.000,A,3119.1454,N,12123.7518,E,0.00,0.00,250518,,,A*6F

$GPVTG,0.00,T,,M,0.00,N,0.0,K,A*0D

$GPGGA,082504.000,3119.1454,N,12123.7518,E,1,11,0.91,-8.9,M,8.0,M,,0000*7D

$GPGSA,A,3,03,11,18,30,07,22,08,193,28,17,01,,1.57,0.91,1.28*32

$GPGSV,4,1,14,28,82,306,18,03,51,104,41,193,45,137,40,42,45,139,30*46

$GPGSV,4,2,14,01,42,038,25,22,40,068,38,17,39,312,26,11,33,053,36*7B

$GPGSV,4,3,14,06,23,241,,30,22,214,27,19,22,296,,18,18,048,40*77

$GPGSV,4,4,14,08,10,092,21,07,08,190,34*7D

$GPRMC,082504.000,A,3119.1454,N,12123.7518,E,0.00,0.00,250518,,,A*68

$GPVTG,0.00,T,,M,0.00,N,0.0,K,A*0D

$GPGGA,082505.000,3119.1454,N,12123.7516,E,1,11,0.91,-8.7,M,8.0,M,,0000*7C

$GPGSA,A,3,03,11,18,30,07,22,08,193,28,17,01,,1.57,0.91,1.28*32

$GPGSV,4,1,14,28,82,306,18,03,51,104,41,193,45,137,40,42,45,139,30*46

$GPGSV,4,2,14,01,42,038,25,22,40,068,38,17,39,312,26,11,33,053,36*7B

$GPGSV,4,3,14,06,23,241,,30,22,214,27,19,22,296,,18,18,048,40*77

$GPGSV,4,4,14,08,10,092,21,07,08,190,34*7D

$GPRMC,082505.000,A,3119.1454,N,12123.7516,E,0.00,0.00,250518,,,A*67

$GPVTG,0.00,T,,M,0.00,N,0.0,K,A*0D

$GPGGA,082506.000,3119.1454,N,12123.7516,E,1,10,0.92,-8.7,M,8.0,M,,0000*7D

$GPGSA,A,3,03,11,18,30,07,22,08,193,17,01,,,1.79,0.92,1.54*3C

$GPGSV,4,1,14,28,82,306,17,03,51,104,41,193,45,137,40,42,45,139,30*49

$GPGSV,4,2,14,01,42,038,24,22,40,068,38,17,39,312,26,11,33,053,36*7A

$GPGSV,4,3,14,06,23,241,,30,22,214,27,19,22,296,,18,18,048,40*77

$GPGSV,4,4,14,08,10,092,20,07,08,190,34*7C

$GPRMC,082506.000,A,3119.1454,N,12123.7516,E,0.00,0.00,250518,,,A*64

$GPVTG,0.00,T,,M,0.00,N,0.0,K,A*0D

$GPGGA,082507.000,3119.1455,N,12123.7515,E,1,10,0.92,-8.5,M,8.0,M,,0000*7C

$GPGSA,A,3,03,11,18,30,07,22,08,193,17,01,,,1.79,0.92,1.54*3C

$GPGSV,4,1,14,28,82,306,17,03,51,104,42,193,45,137,40,42,45,139,31*4B

$GPGSV,4,2,14,01,42,038,24,22,40,068,38,17,39,312,27,11,33,053,36*7B

$GPGSV,4,3,14,06,23,241,,30,22,214,27,19,22,296,,18,18,048,40*77

$GPGSV,4,4,14,08,10,092,20,07,08,190,34*7C

$GPRMC,082507.000,A,3119.1455,N,12123.7515,E,0.00,0.00,250518,,,A*67

$GPVTG,0.00,T,,M,0.00,N,0.0,K,A*0D

$GPGGA,082508.000,3119.1455,N,12123.7514,E,1,10,0.92,-8.3,M,8.0,M,,0000*74

$GPGSA,A,3,03,11,18,30,07,22,08,193,17,01,,,1.79,0.92,1.54*3C

$GPGSV,4,1,14,28,82,306,17,03,51,104,42,193,45,137,40,42,45,139,31*4B

$GPGSV,4,2,14,01,42,038,24,22,40,068,38,17,39,312,27,11,33,053,36*7B

$GPGSV,4,3,14,06,23,241,,30,22,214,27,19,22,296,,18,18,048,40*77

$GPGSV,4,4,14,08,10,092,19,07,08,190,34*76

$GPRMC,082508.000,A,3119.1455,N,12123.7514,E,0.00,0.00,250518,,,A*69

$GPVTG,0.00,T,,M,0.00,N,0.0,K,A*0D

$GPGGA,082509.000,3119.1455,N,12123.7513,E,1,10,0.92,-8.2,M,8.0,M,,0000*73

$GPGSA,A,3,03,11,18,30,07,22,08,193,17,01,,,1.79,0.92,1.54*3C

$GPGSV,4,1,14,28,83,304,16,03,51,104,42,193,45,137,40,42,45,139,31*49

$GPGSV,4,2,14,01,42,038,23,22,40,068,38,17,39,312,27,11,33,053,36*7C

$GPGSV,4,3,14,06,23,241,,30,22,214,27,19,22,296,,18,18,048,40*77

$GPGSV,4,4,14,08,10,092,18,07,08,190,34*77

$GPRMC,082509.000,A,3119.1455,N,12123.7513,E,0.00,0.00,250518,,,A*6F

$GPVTG,0.00,T,,M,0.00,N,0.0,K,A*0D

$GPGGA,082510.000,3119.1456,N,12123.7512,E,1,09,0.99,-8.0,M,8.0,M,,0000*78

$GPGSA,A,3,03,11,18,30,07,22,193,17,01,,,,2.07,0.99,1.82*3E

$GPGSV,4,1,14,28,83,304,15,03,51,104,42,193,45,137,40,42,45,139,31*4A

$GPGSV,4,2,14,01,42,038,23,22,40,068,38,17,39,312,28,11,33,053,36*73

$GPGSV,4,3,14,06,23,241,,30,22,214,27,19,22,296,,18,18,048,40*77

$GPGSV,4,4,14,08,10,092,18,07,08,190,34*77

$GPRMC,082510.000,A,3119.1456,N,12123.7512,E,0.00,0.00,250518,,,A*65

$GPVTG,0.00,T,,M,0.00,N,0.0,K,A*0D

$GPGGA,082511.000,3119.1456,N,12123.7511,E,1,09,0.99,-7.9,M,8.0,M,,0000*7C

$GPGSA,A,3,03,11,18,30,07,22,193,17,01,,,,2.07,0.99,1.82*3E

$GPGSV,4,1,14,28,83,304,14,03,51,104,42,193,45,137,40,42,45,139,31*4B

$GPGSV,4,2,14,01,42,038,23,22,40,068,38,17,39,312,28,11,33,053,36*73

$GPGSV,4,3,14,06,23,241,,30,22,214,27,19,22,296,,18,18,048,40*77

$GPGSV,4,4,14,08,10,092,17,07,08,190,34*78

$GPRMC,082511.000,A,3119.1456,N,12123.7511,E,0.00,0.00,250518,,,A*67

$GPVTG,0.00,T,,M,0.00,N,0.0,K,A*0D

$GPGGA,082512.000,3119.1457,N,12123.7509,E,1,09,0.99,-7.7,M,8.0,M,,0000*79

$GPGSA,A,3,03,11,18,30,07,22,193,17,01,,,,2.07,0.99,1.82*3E

$GPGSV,4,1,14,28,83,304,11,03,51,104,42,193,45,137,40,42,45,139,31*4E

$GPGSV,4,2,14,01,42,038,23,22,40,068,38,17,39,312,29,11,33,053,36*72

$GPGSV,4,3,14,06,23,241,,30,22,214,27,19,22,296,,18,18,048,40*77

$GPGSV,4,4,14,08,10,092,16,07,08,190,34*79

$GPRMC,082512.000,A,3119.1457,N,12123.7509,E,0.00,0.00,250518,,,A*6C

$GPVTG,0.00,T,,M,0.00,N,0.0,K,A*0D

$GPGGA,082513.000,3119.1457,N,12123.7509,E,1,09,0.99,-7.7,M,8.0,M,,0000*78

$GPGSA,A,3,03,11,18,30,07,22,193,17,01,,,,2.07,0.99,1.82*3E

$GPGSV,4,1,14,28,83,304,13,03,51,104,42,193,45,137,40,42,45,139,31*4C

$GPGSV,4,2,14,01,42,038,23,22,40,068,38,17,39,312,29,11,33,053,36*72

$GPGSV,4,3,14,06,23,241,,30,22,214,27,19,22,296,,18,18,048,40*77

$GPGSV,4,4,14,08,10,092,15,07,08,190,34*7A

$GPRMC,082513.000,A,3119.1457,N,12123.7509,E,0.00,0.00,250518,,,A*6D

$GPVTG,0.00,T,,M,0.00,N,0.0,K,A*0D

$GPGGA,082514.000,3119.1457,N,12123.7509,E,1,09,0.99,-7.7,M,8.0,M,,0000*7F

$GPGSA,A,3,03,11,18,30,07,22,193,17,01,,,,2.07,0.99,1.82*3E

$GPGSV,4,1,14,28,83,304,13,03,51,104,42,193,45,137,40,42,45,139,31*4C

$GPGSV,4,2,14,01,42,038,23,22,40,068,38,17,39,312,29,11,33,053,36*72

$GPGSV,4,3,14,06,23,241,,30,22,214,27,19,22,296,,18,18,048,40*77

$GPGSV,4,4,14,08,10,092,14,07,08,190,34*7B

$GPRMC,082514.000,A,3119.1457,N,12123.7509,E,0.00,0.00,250518,,,A*6A

$GPVTG,0.00,T,,M,0.00,N,0.0,K,A*0D

$GPGGA,082515.000,3119.1457,N,12123.7509,E,1,09,0.99,-7.7,M,8.0,M,,0000*7E

$GPGSA,A,3,03,11,18,30,07,22,193,17,01,,,,2.07,0.99,1.82*3E

$GPGSV,4,1,14,28,83,304,14,03,51,104,42,193,45,137,40,42,45,139,31*4B

$GPGSV,4,2,14,01,42,038,25,22,40,068,39,17,39,312,28,11,33,053,36*74

$GPGSV,4,3,14,06,23,241,,30,22,214,27,19,22,296,,18,18,048,40*77

$GPGSV,4,4,14,08,10,092,13,07,08,190,34*7C

$GPRMC,082515.000,A,3119.1457,N,12123.7509,E,0.00,0.00,250518,,,A*6B

$GPVTG,0.00,T,,M,0.00,N,0.0,K,A*0D

$GPGGA,082516.000,3119.1457,N,12123.7509,E,1,09,0.99,-7.7,M,8.0,M,,0000*7D

$GPGSA,A,3,03,11,18,30,07,22,193,17,01,,,,2.07,0.99,1.82*3E

$GPGSV,4,1,14,28,83,304,15,03,51,104,42,193,45,137,40,42,45,139,31*4A

$GPGSV,4,2,14,01,42,038,26,22,40,068,39,17,39,312,28,11,33,053,36*77

$GPGSV,4,3,14,06,23,241,,30,22,214,26,19,22,296,,18,18,048,40*76

$GPGSV,4,4,14,08,10,092,12,07,08,190,34*7D

$GPRMC,082516.000,A,3119.1457,N,12123.7509,E,0.00,0.00,250518,,,A*68

$GPVTG,0.00,T,,M,0.00,N,0.0,K,A*0D

$GPGGA,082517.000,3119.1457,N,12123.7509,E,1,10,0.92,-7.6,M,8.0,M,,0000*7E

$GPGSA,A,3,03,11,18,30,07,22,08,193,17,01,,,1.79,0.92,1.53*3B

$GPGSV,4,1,14,28,83,304,16,03,51,104,42,193,45,137,40,42,45,139,31*49

$GPGSV,4,2,14,01,42,038,27,22,40,068,39,17,39,312,28,11,33,053,36*76

$GPGSV,4,3,14,06,23,241,,30,22,214,27,19,22,296,,18,18,048,40*77

$GPGSV,4,4,14,08,10,092,13,07,08,190,34*7C

$GPRMC,082517.000,A,3119.1457,N,12123.7509,E,0.00,0.00,250518,,,A*69

$GPVTG,0.00,T,,M,0.00,N,0.0,K,A*0D

$GPGGA,082518.000,3119.1457,N,12123.7509,E,1,10,0.92,-7.6,M,8.0,M,,0000*71

$GPGSA,A,3,03,11,18,30,07,22,08,193,17,01,,,1.79,0.92,1.53*3B

$GPGSV,4,1,14,28,83,304,16,03,51,104,42,193,45,137,40,42,45,139,31*49

$GPGSV,4,2,14,01,42,038,27,22,40,068,39,17,39,312,28,11,33,053,36*76

$GPGSV,4,3,14,06,23,241,,30,22,214,27,19,22,296,,18,18,048,40*77

$GPGSV,4,4,14,08,10,092,15,07,08,190,34*7A

$GPRMC,082518.000,A,3119.1457,N,12123.7509,E,0.00,0.00,250518,,,A*66

