$GPGSV,4,3,15,11,26,060,20,40,19,251,,30,15,208,18,18,10,052,*7B
$GPGSV,4,4,15,08,05,100,14,23,03,125,,07,01,184,*4B
$GPRMC,084705.000,A,3119.1351,N,12123.6916,E,0.00,213.36,250518,,,A*69
$GPVTG,213.36,T,,M,0.00,N,0.0,K,A*08
$GPGGA,084706.000,3119.1351,N,12123.6914,E,1,08,0.93,1.6,M,8.0,M,,0000*59
$GPGSA,A,3,08,30,03,193,19,22,11,17,,,,,1.26,0.93,0.84*3C
$GPGSV,4,1,15,28,82,210,,03,53,086,36,193,50,136,28,17,45,322,28*4B
$GPGSV,4,2,15,22,35,058,19,01,33,042,,06,31,250,,19,28,304,15*7D
$GPGSV,4,3,15,11,26,060,20,40,19,251,,30,15,208,18,18,10,052,*7B
$GPGSV,4,4,15,08,05,100,13,23,03,125,,07,01,184,*4C
$GPRMC,084706.000,A,3119.1351,N,12123.6914,E,0.00,
                                                           
                                                           
===========================================================
==                   全球GPS定位导航模块                 ==
==              Author：555555                           ==
==              Email：wangzuwu@shu.edu.cn               ==
==              Platform：NMEA-0183                        ==
===========================================================
                                                           
===========================================================
==   GPS state bit : A  [A:有效状态 V:无效状态]              
==   GPS mode  bit : A  [A:自主定位 D:差分定位]               
==   Date : 2018-05-25                                  
==   Time : 16:47:05                                   
==   纬度 : 北纬:31度19分8秒                              
==   经度 : 东经:121度23分41秒                              
==   速度 : 0.000  m/s                                      
==                                                       
============================================================
buff:213.36,250518,,,A*68
$GPVTG,213.36,T,,M,0.00,N,0.0,K,A*08
$GPGGA,084707.000,3119.1351,N,12123.6914,E,1,08,0.93,1.6,M,8.0,M,,0000*58
$GPGSA,A,3,08,30,03,193,19,22,11,17,,,,,1.26,0.93,0.84*3C
$GPGSV,4,1,15,28,82,210,,03,53,086,37,193,50,136,27,17,45,322,27*4A
$GPGSV,4,2,15,22,35,058,19,01,33,042,,06,31,250,,19,28,304,15*7D
$GPGSV,4,3,15,11,26,060,20,40,19,251,,30,15,208,18,18,10,052,*7B
$GPGSV,4,4,15,08,05,100,15,23,03,125,,07,01,184,*4A
$GPRMC,084707.000,A,3119.1351,N,12123.6914,E,0.00,213.36,250518,,,A*69
$GPVTG,213.36,T,,M,0.00,N,0.0,K,A*08
$GPGGA,084708.000,3119.1352,N,12123.6914,E,1,08,0.93,1.6,M,8.0,M,,0000*54
$GPGSA,A,3,08,30,03,193,19,22,11,17,,,,,1.26,0.93,0.84*3C
$GPGSV,4,1,15,28,82,210,,03,53,086,37,193,50,136,28,17,45,322,26*44
$GPGSV,4,2,15,22,35,058,19,01,33,042,,06,31,250,,19,28,304,17*7F
$GPGSV,4,3,15,11,26,060,20,40,19,251,,30,15,208,18,18,10,052,*7B
$GPGSV,4,4,15,08,05,100,13,23,03,125,,07,01,184,*4C
$GPRMC,08470807,01,184,*4C
$GPRMC,084706.000,A,3119.1351,N,12123.6914,E,0.00,
                                                           
                                                           
===========================================================
==                   全球GPS定位导航模块                 ==
==              Author：555555                           ==
==              Email：wangzuwu@shu.edu.cn               ==
==              Platform：NMEA-0183                        ==
===========================================================
                                                           
===========================================================
==   GPS state bit : A  [A:有效状态 V:无效状态]              
==   GPS mode  bit : A  [A:自主定位 D:差分定位]               
==   Date : 2018-05-25                                  
==   Time : 16:47:07                                   
==   纬度 : 北纬:31度19分8秒                              
==   经度 : 东经:121度23分41秒                              
==   速度 : 0.000  m/s                                      
==                                                       
============================================================
buff:.000,A,3119.1352,N,12123.6914,E,0.00,213.36,250518,,,A*65
$GPVTG,213.36,T,,M,0.00,N,0.0,K,A*08
$GPGGA,084709.000,3119.1356,N,12123.6915,E,1,07,0.99,1.6,M,8.0,M,,0000*55
$GPGSA,A,3,30,03,193,19,22,11,17,,,,,,1.35,0.99,0.92*3B
$GPGSV,4,1,15,28,82,210,,03,53,086,37,193,50,136,28,17,45,322,25*47
$GPGSV,4,2,15,22,35,058,19,01,33,042,,06,31,250,,19,28,304,17*7F
$GPGSV,4,3,15,11,26,060,21,40,19,251,,30,15,208,18,18,10,052,*7A
$GPGSV,4,4,15,08,05,100,,23,03,125,,07,01,184,*4E
$GPRMC,084709.000,A,3119.1356,N,12123.6915,E,0.00,213.36,250518,,,A*61
$GPVTG,213.36,T,,M,0.00,N,0.0,K,A*08
$GPGGA,084710.000,3119.1361,N,12123.6917,E,1,07,0.99,1.6,M,8.0,M,,0000*5B
$GPGSA,A,3,30,03,193,19,22,11,17,,,,,,1.35,0.99,0.92*3B
$GPGSV,4,1,15,28,82,210,,03,53,086,37,193,50,136,28,17,45,322,24*46
$GPGSV,4,2,15,22,35,058,19,01,33,042,,06,31,250,,19,28,304,19*71
$GPGSV,4,3,15,11,26,060,21,30,15,208,18,18,10,052,,08,05,100,*7C
$GPGSV,4,4,15,23,03,125,,07,01,184,,34,,,*75
$GPRMC,084710.000,A,3119.1361,N,12123.691.6914,E,0.00,
                                                           
                                                           
===========================================================
==                   全球GPS定位导航模块                 ==
==              Author：555555                           ==
==              Email：wangzuwu@shu.edu.cn               ==
==              Platform：NMEA-0183                        ==
===========================================================
                                                           
===========================================================
==   GPS state bit : A  [A:有效状态 V:无效状态]              
==   GPS mode  bit : A  [A:自主定位 D:差分定位]               
==   Date : 2018-05-25                                  
==   Time : 16:47:09                                   
==   纬度 : 北纬:31度19分8秒                              
==   经度 : 东经:121度23分41秒                              
==   速度 : 0.000  m/s                                      
==                                                       
============================================================
buff:7,E,0.00,213.36,250518,,,A*6F
$GPVTG,213.36,T,,M,0.00,N,0.0,K,A*08
$GPGGA,084711.000,3119.1367,N,12123.6920,E,1,07,0.99,1.6,M,8.0,M,,00
